stop_id,stop_code,stop_name,stop_desc,stop_lat,stop_lon,zone_id,stop_url,location_type,parent_station
9001103,,Wiebestr./Huttenstr. (Berlin),,52.5283150,13.3202550,,,0,
9001151,,Reuchlinstr. (Berlin),,52.5279000,13.3236320,,,0,
9001152,,Neues Ufer (Berlin),,52.5291000,13.3159760,,,0,
9001154,,Ilsenburger Str. (Berlin),,52.5257530,13.3098340,,,0,
9001155,,Goslarer Platz (Berlin),,52.5257930,13.3142560,,,0,
9001200,,Fennbrücke (Berlin),,52.5383960,13.3609580,,,0,
9001201,,S+U Westhafen (Berlin),,52.5361830,13.3438370,,,0,
9001202,,Am Nordhafen (Berlin),,52.5388500,13.3636100,,,0,
9001203,,Döberitzer Str. (Berlin),,52.5306650,13.3681070,,,0,
9001204,,Lehrter Str./Invalidenstr. (Berlin),,52.5257640,13.3652230,,,0,
9001206,,Heidestr. (Berlin),,52.5333220,13.3655090,,,0,
9001252,,Friedrich-Krause-Ufer (Berlin),,52.5367390,13.3612160,,,0,
9002101,,Turmstr./Waldstr. (Berlin),,52.5271040,13.3304300,,,0,
9002102,,Turmstr./Beusselstr. (Berlin),,52.5273390,13.3287430,,,0,
9002151,,Wittstocker Str. (Berlin),,52.5308560,13.3285100,,,0,
9002200,,Quitzowstr. (Berlin),,52.5352940,13.3563960,,,0,
9002201,,U Birkenstr. (Berlin),,52.5322290,13.3414170,,,0,
9002202,,Wilsnacker Str. (Berlin),,52.5263630,13.3514060,,,0,
9002203,,Stendaler Str. (Berlin),,52.5324580,13.3505320,,,0,
9002204,,Perleberger Brücke (Berlin),,52.5353290,13.3580330,,,0,
9002205,,Turmstr./Lübecker Str. (Berlin),,52.5262510,13.3455080,,,0,
9002206,,Turmstr./Rathenower Str. (Berlin),,52.5266840,13.3548050,,,0,
9002207,,Stromstr. (Berlin),,52.5291890,13.3440060,,,0,
9002254,,Birkenstr./Rathenower Str. (Berlin),,52.5296540,13.3529070,,,0,
9002255,,Seydlitzstr. (Berlin),,52.5270350,13.3641580,,,0,
9002256,,Poststadion (Berlin),,52.5302810,13.3624310,,,0,
9002257,,Kruppstr. (Berlin),,52.5333870,13.3596390,,,0,
9002258,,Havelberger Str. (Berlin),,52.5310250,13.3476730,,,0,
9003101,,U Hansaplatz (Berlin),,52.5181110,13.3421650,,,0,
9003102,,S Bellevue (Berlin),,52.5199510,13.3470980,,,0,
9003103,,S Tiergarten (Berlin),,52.5139630,13.3362350,,,0,
9003104,,U Turmstr. (Berlin),,52.5259380,13.3414170,,,0,
9003105,,Bachstr. (Berlin),,52.5185980,13.3395730,,,0,
9003107,,Alt-Moabit/Gotzkowskystr. (Berlin),,52.5239290,13.3298920,,,0,
9003152,,Solinger Str. (Berlin),,52.5205470,13.3357280,,,0,
9003155,,Rathaus Tiergarten (Berlin),,52.5260620,13.3391660,,,0,
9003156,,Ottostr. (Berlin),,52.5246810,13.3349250,,,0,
9003174,,U Turmstr. (Berlin) [Bus Turmstr.],,52.5263000,13.3419880,,,0,
9003175,,U Turmstr. (Berlin) [Bus Stromstr.],,52.5258120,13.3430190,,,0,
9003176,,U Turmstr. (Berlin) [Bus Alt-Moabit],,52.5255100,13.3419340,,,0,
9003181,,Zinzendorfstr. (Berlin),,52.5222210,13.3315060,,,0,
9003202,,Kirchstr./Alt-Moabit (Berlin),,52.5245420,13.3495820,,,0,
9003203,,Alt-Moabit/Rathenower Str. (Berlin),,52.5236920,13.3570700,,,0,
9003204,,Kleiner Tiergarten (Berlin),,52.5249900,13.3457640,,,0,
9003251,,Paulstr. (Berlin),,52.5200690,13.3556620,,,0,
9003252,,Schloss Bellevue (Berlin),,52.5167150,13.3542030,,,0,
9003253,,Haus der Kulturen der Welt (Berlin),,52.5175980,13.3633640,,,0,
9003254,,U Bundestag (Berlin),,52.5199080,13.3734540,,,0,
9003255,,Clara-Jaschke-Str. (Berlin),,52.5249280,13.3660520,,,0,
9003256,,Spenerstr. (Berlin),,52.5240020,13.3535430,,,0,
9003257,,Lesser-Ury-Weg (Berlin),,52.5242110,13.3619780,,,0,
9003259,,Lüneburger Str. (Berlin),,52.5231360,13.3616500,,,0,
9004101,,Großer Stern (Berlin),,52.5151430,13.3501770,,,0,
9004104,,Reichstag/Bundestag (Berlin),,52.5177160,13.3764800,,,0,
9004105,,Platz der Republik (Berlin),,52.5177860,13.3704420,,,0,
9004151,,Nordische Botschaften/Adenauer-Stiftung (Berlin),,52.5095930,13.3514060,,,0,
9004181,,Hertzallee (Berlin),,52.5092310,13.3326150,,,0,
9005101,,Budapester Str. (Berlin),,52.5065670,13.3456720,,,0,
9005102,,Corneliusbrücke (Berlin),,52.5076200,13.3486650,,,0,
9005103,,Schillstr. (Berlin),,52.5031030,13.3499260,,,0,
9005105,,Lützowplatz (Berlin),,52.5049000,13.3515570,,,0,
9005150,,Tiergartenstr. (Berlin),,52.5097060,13.3619420,,,0,
9005152,,Gedenkstätte Dt. Widerstand (Berlin),,52.5057360,13.3632920,,,0,
9005154,,Köbisstr. (Berlin),,52.5071650,13.3562660,,,0,
9005155,,Hiroshimasteg (Berlin),,52.5067290,13.3574600,,,0,
9005156,,Bayreuther Str. (Berlin),,52.5044300,13.3439580,,,0,
9005201,,U Kurfürstenstr. (Berlin),,52.4998100,13.3628140,,,0,
9005202,,Lützowstr./Potsdamer Str. (Berlin),,52.5034220,13.3660030,,,0,
9005205,,Potsdamer Brücke (Berlin),,52.5059480,13.3683060,,,0,
9005206,,Philharmonie (Berlin),,52.5100800,13.3684340,,,0,
9005207,,Philharmonie Süd (Berlin),,52.5086160,13.3707450,,,0,
9005208,,Varian-Fry-Str. (Berlin),,52.5092930,13.3743020,,,0,
9005252,,U Mendelssohn-Bartholdy-Park (Berlin),,52.5038060,13.3747190,,,0,
9005253,,Schöneberger Brücke (Berlin),,52.5023330,13.3777510,,,0,
9005255,,Kulturforum (Berlin),,52.5075640,13.3691810,,,0,
9005271,,Frobenstr. (Berlin),,52.4994570,13.3598870,,,0,
9006100,,S Wollankstr./Sternstr. (Berlin),,52.5653520,13.3915400,,,0,
9006102,,Prinzenallee/Soldiner Str. (Berlin),,52.5586560,13.3862410,,,0,
9006103,,Residenzstr./Reginhardstr. (Berlin),,52.5601420,13.3705230,,,0,
9006104,,Soldiner Str./Koloniestr. (Berlin),,52.5600830,13.3810510,,,0,
9006105,,Verlängerte Koloniestr. (Berlin),,52.5675450,13.3846480,,,0,
9006153,,St.-Elisabeth-Kirchhof (Berlin),,52.5604980,13.3877590,,,0,
9007102,,S+U Gesundbrunnen Bhf (Berlin),,52.5486370,13.3883720,,,0,
9007103,,U Voltastr. (Berlin),,52.5419300,13.3931570,,,0,
9007104,,S Nordbahnhof (Berlin),,52.5316730,13.3887940,,,0,
9007105,,Wolliner Str. (Berlin),,52.5397700,13.4018000,,,0,
9007106,,Usedomer Str./Feldstr. (Berlin),,52.5392330,13.3871320,,,0,
9007107,,Ruppiner Str. (Berlin),,52.5390850,13.3989780,,,0,
9007108,,S Nordbahnhof/Gartenstr. (Berlin),,52.5333600,13.3874920,,,0,
9007110,,U Bernauer Str. (Berlin),,52.5379940,13.3962310,,,0,
9007111,,Lortzingstr. (Berlin),,52.5443040,13.3991730,,,0,
9007112,,Gartenplatz (Berlin),,52.5384220,13.3842760,,,0,
9007113,,Theodor-Heuss-Weg (Berlin),,52.5349520,13.3858620,,,0,
9007114,,Gartenstr./Feldstr. (Berlin),,52.5365220,13.3838180,,,0,
9007150,,Gedenkstätte Berliner Mauer (Berlin),,52.5356980,13.3904840,,,0,
9007154,,Demminer Str. (Berlin),,52.5426110,13.3994290,,,0,
9007155,,Gleimstr. (Berlin),,52.5460420,13.3980790,,,0,
9007156,,Swinemünder Str. (Berlin),,52.5459540,13.3949210,,,0,
9007157,,Rügener Str. (Berlin),,52.5450140,13.3907930,,,0,
9007159,,Humboldtsteg (Berlin),,52.5473910,13.3819930,,,0,
9007160,,Grüntaler Str. (Berlin),,52.5553580,13.3907960,,,0,
9007181,,Usedomer Str. (Berlin),,52.5399160,13.3894670,,,0,
9008101,,S Humboldthain (Berlin),,52.5447420,13.3787260,,,0,
9008102,,U Reinickendorfer Str. (Berlin),,52.5398950,13.3703930,,,0,
9008103,,Nettelbeckplatz/S Wedding (Berlin),,52.5446700,13.3701880,,,0,
9008104,,U Reinickendorfer Str./Fennstr. (Berlin),,52.5415240,13.3694120,,,0,
9008106,,Brunnenplatz (Berlin),,52.5501420,13.3779960,,,0,
9008151,,Gerichtstr./Hochstr. (Berlin),,52.5432580,13.3757170,,,0,
9008153,,Wiesenstr. (Berlin),,52.5475930,13.3738910,,,0,
9008158,,Schererstr. (Berlin),,52.5482140,13.3691640,,,0,
9009101,,U Amrumer Str. (Berlin),,52.5422020,13.3495340,,,0,
9009102,,U Leopoldplatz (Berlin),,52.5464930,13.3593950,,,0,
9009103,,U Seestr. (Berlin),,52.5504700,13.3519690,,,0,
9009104,,S+U Wedding (Berlin),,52.5427320,13.3660600,,,0,
9009105,,Seestr./Amrumer Str. (Berlin),,52.5462190,13.3440550,,,0,
9009151,,Gerichtstr. (Berlin),,52.5444780,13.3626640,,,0,
9009152,,Rathaus Wedding (Berlin),,52.5478470,13.3565770,,,0,
9009153,,Luxemburger Str. (Berlin),,52.5440530,13.3550600,,,0,
9009154,,Samoastr. (Berlin),,52.5416010,13.3541440,,,0,
9009155,,Kiautschoustr. (Berlin),,52.5410670,13.3576650,,,0,
9009156,,Antwerpener Str. (Berlin),,52.5486830,13.3487010,,,0,
9009201,,U Nauener Platz (Berlin),,52.5515240,13.3673650,,,0,
9009202,,U Osloer Str. (Berlin),,52.5569380,13.3732840,,,0,
9009203,,U Pankstr. (Berlin),,52.5522550,13.3818370,,,0,
9009204,,Osloer Str./Prinzenallee (Berlin),,52.5559360,13.3836630,,,0,
9009206,,Drontheimer Str. (Berlin),,52.5565290,13.3775470,,,0,
9009251,,Maxstr. (Berlin),,52.5494150,13.3639970,,,0,
9009252,,Exerzierstr. (Berlin),,52.5540170,13.3717040,,,0,
9009253,,Uferstr. (Berlin),,52.5532590,13.3781670,,,0,
9009254,,Ritterlandweg/Soldiner Str. (Berlin),,52.5603280,13.3769290,,,0,
9009272,,U Osloer  Str. (Berlin),,52.5580160,13.3724920,,,0,
9010201,,Sylter Str. (Berlin),,52.5423270,13.3369340,,,0,
9010251,,Virchow-Klinikum (Berlin),,52.5434930,13.3387390,,,0,
9011101,,U Rehberge (Berlin),,52.5566700,13.3410130,,,0,
9011102,,U Afrikanische Str. (Berlin),,52.5608620,13.3335020,,,0,
9011103,,Otawistr. (Berlin),,52.5526810,13.3368810,,,0,
9011104,,Glasgower Str. (Berlin),,52.5549150,13.3459720,,,0,
9011105,,Londoner Str. (Berlin),,52.5633620,13.3428980,,,0,
9011151,,Türkenstr. (Berlin),,52.5535060,13.3465930,,,0,
9011152,,Bristolstr. (Berlin),,52.5585620,13.3516140,,,0,
9011153,,Septimerstr. (Berlin),,52.5642540,13.3387080,,,0,
9011154,,Nachtigalplatz (Berlin),,52.5569300,13.3346510,,,0,
9011155,,Transvaalstr. (Berlin),,52.5507710,13.3388870,,,0,
9011201,,Louise-Schroeder-Platz (Berlin),,52.5569820,13.3656030,,,0,
9011206,,Holländerstr./Aroser Allee (Berlin),,52.5620880,13.3537570,,,0,
9011207,,Brienzer Str. (Berlin),,52.5619490,13.3595780,,,0,
9011251,,Iranische Str. (Berlin),,52.5550630,13.3659560,,,0,
9011252,,Osram-Höfe (Berlin),,52.5536960,13.3582910,,,0,
9012101,,S Anhalter Bahnhof (Berlin),,52.5045380,13.3820770,,,0,
9012102,,U Kochstr./Checkpoint Charlie (Berlin),,52.5066730,13.3908630,,,0,
9012103,,U Hallesches Tor (Berlin),,52.4977740,13.3917600,,,0,
9012104,,Lindenstr./Oranienstr. (Berlin),,52.5069620,13.3983690,,,0,
9012105,,Abgeordnetenhaus (Berlin),,52.5065530,13.3796660,,,0,
9012106,,Mehringbrücke (Berlin),,52.4979740,13.3892630,,,0,
9012151,,Willy-Brandt-Haus (Berlin),,52.5004130,13.3874400,,,0,
9012152,,Blücherstr. (Berlin),,52.4957850,13.3966160,,,0,
9012153,,Wilhelmstr./Kochstr. (Berlin),,52.5058900,13.3863610,,,0,
9012154,,Charlottenstr. (Berlin),,52.5068850,13.3935360,,,0,
9012155,,Waldeckpark (Berlin),,52.5061750,13.4018350,,,0,
9012156,,Alexandrinenstr. (Berlin),,52.5051540,13.4053220,,,0,
9012157,,Jüdisches Museum (Berlin),,52.5035430,13.3956390,,,0,
9012158,,Franz-Klühs-Str. (Berlin),,52.5004170,13.3948040,,,0,
9012161,,Wilhelmstr./Franz-Klühs-Str. (Berlin),,52.5014150,13.3886060,,,0,
9013101,,U Moritzplatz (Berlin),,52.5037390,13.4109470,,,0,
9013102,,U Kottbusser Tor (Berlin),,52.4990470,13.4177480,,,0,
9013103,,U Prinzenstr. (Berlin),,52.4982740,13.4065310,,,0,
9013104,,Prinzenstr./Ritterstr. (Berlin),,52.5016470,13.4092750,,,0,
9013151,,Segitzdamm (Berlin),,52.5002390,13.4143400,,,0,
9013152,,Oranienplatz (Berlin),,52.5022440,13.4157300,,,0,
9013172,,U Kottbusser Tor (Berlin) [Bus Adalbertstr.],,52.4998940,13.4183790,,,0,
9013173,,U Kottbusser Tor (Berlin) [Bus Reichenbg. Str.],,52.4994460,13.4167590,,,0,
9013174,,U Kottbusser Tor (Berlin) [Bus Kottbusser Str.],,52.4983040,13.4190050,,,0,
9014101,,U Görlitzer Bahnhof (Berlin),,52.4990350,13.4284680,,,0,
9014102,,U Schlesisches Tor (Berlin),,52.5011470,13.4417910,,,0,
9014103,,Adalbertstr./Oranienstr. (Berlin),,52.5012850,13.4192930,,,0,
9014104,,Manteuffelstr./Köpenicker Str. (Berlin),,52.5056340,13.4320110,,,0,
9014105,,Waldemarstr./Manteuffelstr. (Berlin),,52.5011720,13.4279190,,,0,
9014106,,Lausitzer Platz (Berlin),,52.4994700,13.4319140,,,0,
9014107,,Bethaniendamm (Berlin),,52.5072140,13.4284390,,,0,
9014151,,Waldemarstr./Adalbertstr. (Berlin),,52.5028900,13.4218190,,,0,
9014152,,Mariannenplatz (Berlin),,52.5022030,13.4244180,,,0,
9014153,,Wrangelstr. (Berlin),,52.5034920,13.4300120,,,0,
9014154,,Eisenbahnstr. (Berlin),,52.5044750,13.4349340,,,0,
9014155,,Falckensteinstr. (Berlin),,52.5000520,13.4439490,,,0,
9014156,,Heinrichplatz (Berlin),,52.5002710,13.4229120,,,0,
9015101,,Heckmannufer (Berlin),,52.4970110,13.4492980,,,0,
9015103,,Glogauer Str. (Berlin),,52.4935360,13.4372720,,,0,
9015104,,Ohlauer Str. (Berlin),,52.4955690,13.4304760,,,0,
9015151,,Taborstr. (Berlin),,52.4982140,13.4472610,,,0,
9015152,,Spreewaldplatz (Berlin),,52.4976440,13.4312800,,,0,
9016101,,U Gneisenaustr. (Berlin),,52.4912520,13.3953820,,,0,
9016103,,Zossener Brücke (Berlin),,52.4984270,13.3958450,,,0,
9016151,,Marheinekeplatz (Berlin),,52.4893830,13.3938210,,,0,
9016152,,Jüterboger Str. (Berlin),,52.4862480,13.3944140,,,0,
9016153,,Gneisenaustr./Baerwaldstr. (Berlin),,52.4903860,13.4002140,,,0,
9016154,,Urbanstr./Baerwaldstr. (Berlin),,52.4939100,13.4031820,,,0,
9016157,,Tempelherrenstr. (Berlin),,52.4943350,13.4006340,,,0,
9016201,,U Schönleinstr. (Berlin),,52.4931790,13.4222410,,,0,
9016202,,U Südstern (Berlin),,52.4892190,13.4076850,,,0,
9016203,,Geibelstr. (Berlin),,52.4933640,13.4067870,,,0,
9016204,,Körtestr. (Berlin),,52.4920390,13.4123400,,,0,
9016250,,Hasenheide (Berlin),,52.4875560,13.4189680,,,0,
9016251,,Fichtestr. (Berlin),,52.4883380,13.4129870,,,0,
9016252,,Graefestr. (Berlin),,52.4909690,13.4161480,,,0,
9016254,,Wilmsstr. (Berlin),,52.4951900,13.4043420,,,0,
9016255,,Kottbusser Brücke (Berlin),,52.4955340,13.4206980,,,0,
9017100,,Obentrautstr./U Mehringdamm (Berlin),,52.4958170,13.3893420,,,0,
9017101,,U Mehringdamm (Berlin),,52.4935750,13.3881530,,,0,
9017102,,U Platz der Luftbrücke (Berlin),,52.4849770,13.3863510,,,0,
9017103,,U Gleisdreieck (Berlin),,52.4995870,13.3742930,,,0,
9017104,,U Möckernbrücke (Berlin),,52.4989440,13.3832560,,,0,
9017105,,Yorckstr./Großbeerenstr. (Berlin),,52.4936340,13.3838260,,,0,
9017106,,Platz der Luftbrücke (Berlin),,52.4834410,13.3870380,,,0,
9017107,,Kaiserkorso (Berlin),,52.4840930,13.3842910,,,0,
9017109,,Katzbachstr./Kreuzbergstr. (Berlin),,52.4893100,13.3770640,,,0,
9017151,,Bergmannstr. (Berlin),,52.4900710,13.3865110,,,0,
9017152,,Kreuzberg/Wasserfall (Berlin),,52.4901740,13.3823330,,,0,
9017171,,U Mehringdamm. (Berlin),,52.4927720,13.3883920,,,0,
9017181,,Columbiadamm/Platz der Luftbrücke (Berlin),,52.4843590,13.3900120,,,0,
9018101,,U Jakob-Kaiser-Platz (Berlin),,52.5369850,13.2936610,,,0,
9018102,,U Halemweg (Berlin),,52.5367030,13.2865780,,,0,
9018103,,Weltlingerbrücke (Berlin),,52.5395760,13.2950640,,,0,
9018105,,Hinckeldeybrücke (Berlin),,52.5466210,13.2992220,,,0,
9018106,,Goerdelerdamm (Berlin),,52.5349490,13.2981700,,,0,
9018151,,Habermannzeile (Berlin),,52.5396710,13.2912790,,,0,
9018152,,Hofackerzeile (Berlin),,52.5371050,13.2908650,,,0,
9018153,,Dahrendorfzeile (Berlin),,52.5351480,13.2890380,,,0,
9019102,,Gloedenpfad (Berlin),,52.5394080,13.3021340,,,0,
9019103,,Seestr./Beusselstr. (Berlin),,52.5382500,13.3263460,,,0,
9019105,,Buchholzweg (Berlin),,52.5469730,13.3177930,,,0,
9019152,,Gedenkstätte Plötzensee (Berlin),,52.5421000,13.3243830,,,0,
9019153,,Friedrich-Olbricht-Damm/Saatwinkler Damm (Berlin),,52.5475520,13.3125770,,,0,
9019154,,Stieffring (Berlin),,52.5450790,13.3127240,,,0,
9019155,,Thaters Privatweg (Berlin),,52.5394460,13.3101090,,,0,
9019156,,Kolonie Zukunft (Berlin),,52.5394640,13.3052310,,,0,
9019158,,Berliner Großmarkt (Berlin),,52.5366510,13.3270050,,,0,
9019202,,Reichweindamm (Berlin),,52.5356530,13.3004020,,,0,
9019203,,Friedrich-Olbricht-Damm/Heckerdamm (Berlin),,52.5412160,13.3149670,,,0,
9019204,,U Mierendorffplatz (Berlin),,52.5259780,13.3057150,,,0,
9019205,,Quedlinburger Str. (Berlin),,52.5229200,13.3059190,,,0,
9019252,,Wirmerzeile (Berlin),,52.5369030,13.3027080,,,0,
9019253,,Keplerstr. (Berlin),,52.5281440,13.3048660,,,0,
9020101,,Friedhöfe Fürstenbrunner Weg (Berlin),,52.5244690,13.2792960,,,0,
9020102,,Rohrdammbrücke (Berlin),,52.5284990,13.2697900,,,0,
9020103,,Kirschenallee (Berlin),,52.5203840,13.2672280,,,0,
9020105,,Machandelweg (Berlin),,52.5248250,13.2450630,,,0,
9020151,,Fürstenbrunner Weg (Berlin),,52.5209570,13.2799300,,,0,
9020152,,Kastanienallee (Berlin),,52.5195130,13.2722270,,,0,
9020153,,DRK-Kliniken Westend (Berlin),,52.5187120,13.2764320,,,0,
9020201,,S+U Jungfernheide Bhf (Berlin),,52.5302750,13.2990640,,,0,
9020202,,S Beusselstr. (Berlin),,52.5343140,13.3287030,,,0,
9020204,,Sophie-Charlotten-Str. (Berlin),,52.5188160,13.2867920,,,0,
9020206,,Pulsstr. (Berlin),,52.5243200,13.2856120,,,0,
9020207,,Tegeler Weg/S Jungfernheide (Berlin),,52.5294070,13.2962380,,,0,
9020208,,Osnabrücker Str. (Berlin),,52.5269140,13.2973880,,,0,
9020252,,Schlossbrücke (Berlin),,52.5229410,13.2999080,,,0,
9020271,,Mollwitzstr. (Berlin),,52.5221690,13.2859030,,,0,
9020272,,Schlosspark-Klinik (Berlin),,52.5228390,13.2887370,,,0,
9020281,,Goerdelersteg (Berlin),,52.5321770,13.3058990,,,0,
9021102,,Marchbrücke (Berlin),,52.5171500,13.3237500,,,0,
9021151,,Marchstr. (Berlin),,52.5134950,13.3226390,,,0,
9021152,,Franklinstr. (Berlin),,52.5220430,13.3281410,,,0,
9021181,,Helmholtzstr. (Berlin),,52.5208270,13.3212380,,,0,
9022101,,U Sophie-Charlotte-Platz (Berlin),,52.5109700,13.2974630,,,0,
9022103,,Klausenerplatz (Berlin),,52.5191250,13.2913680,,,0,
9022105,,Haubachstr. (Berlin),,52.5153910,13.3008640,,,0,
9022106,,Bismarckstr./Kaiser-Friedrich-Str. (Berlin),,52.5112840,13.3015970,,,0,
9022151,,Eosanderstr. (Berlin),,52.5182680,13.3040130,,,0,
9022152,,Seelingstr. (Berlin),,52.5163740,13.2964440,,,0,
9022153,,Zillestr. (Berlin),,52.5133670,13.2969000,,,0,
9022171,,Schloss Charlottenburg (Berlin),,52.5192550,13.2959540,,,0,
9022172,,Luisenplatz/Schloss Charlottenburg (Berlin),,52.5195740,13.2996320,,,0,
9022201,,U Deutsche Oper (Berlin),,52.5118270,13.3094200,,,0,
9022202,,U Richard-Wagner-Platz (Berlin),,52.5171540,13.3072210,,,0,
9022203,,Dovebrücke (Berlin),,52.5184380,13.3202680,,,0,
9022251,,Guerickestr. (Berlin),,52.5175080,13.3174410,,,0,
9022252,,Warburgzeile (Berlin),,52.5162110,13.3104050,,,0,
9023101,,U Ernst-Reuter-Platz (Berlin),,52.5115820,13.3225810,,,0,
9023104,,Otto-Suhr-Allee/Leibnizstr. (Berlin),,52.5146380,13.3152490,,,0,
9023105,,Uhlandstr./Kantstr. (Berlin),,52.5056240,13.3257310,,,0,
9023152,,Steinplatz (Berlin),,52.5090430,13.3262020,,,0,
9023172,,Jebensstr. (Berlin),,52.5071260,13.3304300,,,0,
9023201,,S+U Zoologischer Garten Bhf (Berlin),,52.5069210,13.3327070,,,0,
9023202,,U Augsburger Str. (Berlin),,52.5005570,13.3367710,,,0,
9023203,,U Kurfürstendamm (Berlin),,52.5037630,13.3314190,,,0,
9023204,,Europa-Center (Berlin),,52.5039300,13.3372560,,,0,
9023206,,Joachimsthaler Str./Kantstr. (Berlin),,52.5053510,13.3308040,,,0,
9023252,,Breitscheidplatz (Berlin),,52.5050450,13.3372010,,,0,
9023301,,U Uhlandstr. (Berlin),,52.5027420,13.3262330,,,0,
9023302,,U Adenauerplatz (Berlin),,52.5000860,13.3073480,,,0,
9023304,,Olivaer Platz (Berlin),,52.5009400,13.3129990,,,0,
9023305,,Lietzenburger Str./Uhlandstr. (Berlin),,52.5000280,13.3254600,,,0,
9023306,,Olivaer Platz Süd (Berlin),,52.4995570,13.3129130,,,0,
9023351,,Bleibtreustr. (Berlin),,52.5017320,13.3201650,,,0,
9023352,,Pariser Str. (Berlin),,52.4979100,13.3244240,,,0,
9023354,,Friedrich-Hollaender-Platz (Berlin),,52.5004450,13.3307290,,,0,
9024101,,S Charlottenburg Bhf (Berlin),,52.5050520,13.3052120,,,0,
9024102,,S Westkreuz (Berlin),,52.5011520,13.2830360,,,0,
9024104,,Amtsgerichtsplatz (Berlin),,52.5068580,13.2954270,,,0,
9024106,,S Messe Nord/ICC (Berlin),,52.5064540,13.2830430,,,0,
9024108,,Kaiser-Friedrich-Str./Kantstr. (Berlin),,52.5067810,13.3024950,,,0,
9024151,,Kuno-Fischer-Str. (Berlin),,52.5066150,13.2897790,,,0,
9024152,,Hindemithplatz (Berlin),,52.5032180,13.3077060,,,0,
9024200,,U Wilmersdorfer Str./Kantstr. (Berlin),,52.5066410,13.3070560,,,0,
9024201,,U Bismarckstr. (Berlin),,52.5115130,13.3052860,,,0,
9024202,,U Wilmersdorfer Str. (Berlin),,52.5058340,13.3068850,,,0,
9024203,,S Savignyplatz (Berlin),,52.5052230,13.3190030,,,0,
9024204,,Savignyplatz (Berlin),,52.5058140,13.3223790,,,0,
9024207,,Kantstr./Leibnizstr. (Berlin),,52.5062940,13.3139680,,,0,
9024208,,Bismarckstr./Leibnizstr. (Berlin),,52.5121270,13.3147760,,,0,
9024251,,Goethestr. (Berlin),,52.5088250,13.3143090,,,0,
9024252,,Schlüterstr. (Berlin),,52.5060740,13.3176440,,,0,
9024253,,Mommsenstr. (Berlin),,52.5033330,13.3135850,,,0,
9025101,,Scholzplatz (Berlin),,52.5065950,13.2282870,,,0,
9025151,,Ragniter Allee (Berlin),,52.5070880,13.2352970,,,0,
9025152,,Mohrunger Allee (Berlin),,52.5079380,13.2493430,,,0,
9025154,,Am Postfenn (Berlin),,52.5007310,13.2095390,,,0,
9025155,,Schildhorn (Berlin),,52.4945690,13.1995040,,,0,
9025202,,U Ruhleben (Berlin),,52.5255870,13.2419020,,,0,
9025203,,U Olympia-Stadion (Berlin),,52.5170480,13.2505000,,,0,
9025252,,Spandauer Damm/Reichsstr. (Berlin),,52.5237030,13.2501000,,,0,
9025253,,Park Ruhwald (Berlin),,52.5225540,13.2550180,,,0,
9025254,,Meiningenallee (Berlin),,52.5217810,13.2592980,,,0,
9025255,,Wiesendammbrücke (Berlin),,52.5279060,13.2435880,,,0,
9025301,,Flatowallee/Olympiastadion (Berlin),,52.5074730,13.2415230,,,0,
9025321,,S Olympiastadion (Berlin),,52.5111350,13.2411110,,,0,
9025401,,Maikäferpfad (Berlin),,52.4947700,13.2664320,,,0,
9025423,,S Messe Süd (Berlin),,52.4987710,13.2704500,,,0,
9025424,,S Pichelsberg (Berlin),,52.5102640,13.2271960,,,0,
9025425,,Jafféstr. (Berlin),,52.4993460,13.2721750,,,0,
9025451,,Alte Allee (Berlin),,52.4921190,13.2630430,,,0,
9025452,,Kiefernweg (Berlin),,52.4936000,13.2649260,,,0,
9025551,,Messegelände/Verwaltung (Berlin),,52.5015090,13.2749170,,,0,
9025552,,Messegelände/ICC (Berlin),,52.5046940,13.2796050,,,0,
9026101,,U Neu-Westend (Berlin),,52.5164090,13.2599100,,,0,
9026102,,Brixplatz (Berlin),,52.5196930,13.2562180,,,0,
9026105,,S Heerstr. (Berlin),,52.5082730,13.2585140,,,0,
9026151,,Hessenallee (Berlin),,52.5142990,13.2639740,,,0,
9026152,,Reichsstr./Kastanienallee (Berlin),,52.5114780,13.2689020,,,0,
9026153,,Württembergallee (Berlin),,52.5089430,13.2656180,,,0,
9026154,,Westendallee (Berlin),,52.5213240,13.2532440,,,0,
9026171,,Altenburger Allee (Berlin),,52.5185870,13.2579100,,,0,
9026201,,U Theodor-Heuss-Platz (Berlin),,52.5097980,13.2729770,,,0,
9026202,,U Kaiserdamm (Berlin),,52.5099850,13.2816950,,,0,
9026203,,U Theodor-Heuss-Platz Süd (Berlin),,52.5089080,13.2722150,,,0,
9026204,,Messedamm/ZOB (Berlin),,52.5070010,13.2807030,,,0,
9026205,,Knobelsdorffstr. (Berlin),,52.5128260,13.2814320,,,0,
9026206,,Königin-Elisabeth-Str/Spandauer Damm (Berlin),,52.5183470,13.2802960,,,0,
9026207,,S Westend (Berlin),,52.5186100,13.2842370,,,0,
9026208,,Masurenallee/ZOB (Berlin),,52.5067340,13.2787800,,,0,
9026209,,Neue Kantstr./ZOB (Berlin),,52.5063850,13.2811270,,,0,
9026251,,Haus des Rundfunks (Berlin),,52.5074230,13.2765910,,,0,
9026271,,U Theodor-Heuss-Platz West (Berlin),,52.5100880,13.2710710,,,0,
9027101,,Oberjägerweg (Berlin),,52.5850260,13.1769350,,,0,
9027201,,Johannesstift (Berlin),,52.5667150,13.1926240,,,0,
9027202,,Klinkeplatz (Berlin),,52.5554390,13.1985840,,,0,
9027204,,Havelschanze (Berlin),,52.5540740,13.2073200,,,0,
9027205,,Aalemannufer (Berlin),,52.5732610,13.2126850,,,0,
9027206,,Rauchstr. (Berlin),,52.5615220,13.2084390,,,0,
9027207,,Cautiusstr. (Berlin),,52.5625110,13.1968750,,,0,
9027251,,Mögeldorfer Weg (Berlin),,52.5598360,13.1974510,,,0,
9027252,,Schülerbergstr. (Berlin),,52.5518950,13.1997560,,,0,
9027253,,Amorbacher Weg (Berlin),,52.5572780,13.2077770,,,0,
9027254,,Mertensstr. (Berlin),,52.5653410,13.2093400,,,0,
9027255,,Siedlung Hakenfelde (Berlin),,52.5708510,13.2127660,,,0,
9027256,,Goltzstr./Rauchstr. (Berlin),,52.5611160,13.2129700,,,0,
9027257,,Mertensstr./Goltzstr. (Berlin),,52.5646870,13.2152800,,,0,
9027258,,Rustweg (Berlin),,52.5754460,13.2116250,,,0,
9027259,,Werderstr. (Berlin),,52.5677620,13.2108080,,,0,
9027260,,Eschenweg (Berlin),,52.5676510,13.2101710,,,0,
9027261,,Hugo-Cassirer-Str. (Berlin),,52.5599230,13.2188350,,,0,
9027262,,Spandauer-See-Brücke (Berlin),,52.5563340,13.2191780,,,0,
9027263,,Ashdodstr. (Berlin),,52.5600490,13.2206080,,,0,
9027291,,Papenberger Weg (Berlin),,52.5782720,13.2103450,,,0,
9027292,,Bürgerablage (Berlin),,52.5843800,13.2071940,,,0,
9027301,,Am Kiesteich (Berlin),,52.5511590,13.1655020,,,0,
9027302,,Falkenseer Chaussee/Stadtrandstr. (Berlin),,52.5534410,13.1536340,,,0,
9027304,,Wasserwerk Spandau (Berlin),,52.5566630,13.1641880,,,0,
9027305,,Freudstr./Goldkäferweg (Berlin),,52.5567200,13.1491490,,,0,
9027306,,Waldkrankenhaus (Berlin),,52.5621840,13.1583760,,,0,
9027307,,Griesingerstr./Stadtrandstr. (Berlin),,52.5601740,13.1571580,,,0,
9027308,,Hochhausweg (Berlin),,52.5504390,13.1528180,,,0,
9027309,,Spektefeld (Berlin),,52.5483760,13.1624650,,,0,
9027351,,Paul-Gerhardt-Ring (Berlin),,52.5487100,13.1595550,,,0,
9027352,,Im Spektefeld/Schulzentrum (Berlin),,52.5490310,13.1562160,,,0,
9027353,,Glühwürmchenweg (Berlin),,52.5566450,13.1550900,,,0,
9027354,,Wolburgsweg (Berlin),,52.5556160,13.1692470,,,0,
9027355,,Frankenwaldstr. (Berlin),,52.5544020,13.1747440,,,0,
9027356,,Friedhof In den Kisseln (Berlin),,52.5530910,13.1800170,,,0,
9027358,,Sandwiesenweg (Berlin),,52.5628760,13.1657240,,,0,
9027359,,Bötzow-Bahn (Berlin),,52.5608180,13.1720990,,,0,
9027360,,Gliensteig (Berlin),,52.5594900,13.1773420,,,0,
9027361,,Schwanter Weg (Berlin),,52.5581360,13.1823930,,,0,
9027362,,Freudstr. (Berlin),,52.5541480,13.1493770,,,0,
9027363,,Am Bogen (Berlin),,52.5523060,13.1595020,,,0,
9027364,,Beerwinkel (Berlin),,52.5517860,13.1620540,,,0,
9027365,,Spektebrücke (Berlin),,52.5458510,13.1614990,,,0,
9027372,,Radelandstr./Pflegeheim (Berlin),,52.5639680,13.1615790,,,0,
9027401,,Falkenseer Chaussee/Zeppelinstr. (Berlin),,52.5475620,13.1847330,,,0,
9027402,,Pionierstr./Zeppelinstr. (Berlin),,52.5515080,13.1855770,,,0,
9027403,,Hohenzollernring/Falkenseer Chaussee (Berlin),,52.5464220,13.1908940,,,0,
9027404,,Dyrotzer Str. (Berlin),,52.5416170,13.1680640,,,0,
9027405,,Pausiner Str. (Berlin),,52.5561520,13.1885030,,,0,
9027451,,Spekteweg (Berlin),,52.5419940,13.1834920,,,0,
9027452,,Merziger Str. (Berlin),,52.5447740,13.1840680,,,0,
9027453,,Westerwaldstr. (Berlin),,52.5487700,13.1781170,,,0,
9027454,,Mülheimer Str. (Berlin),,52.5499320,13.1724130,,,0,
9027455,,Falkenhagener Tor (Berlin),,52.5502030,13.1902590,,,0,
9027456,,Zweibrücker Str. (Berlin),,52.5468980,13.1882530,,,0,
9027457,,Viersener Str. (Berlin),,52.5401090,13.1750990,,,0,
9027458,,Leuthingerweg (Berlin),,52.5418340,13.1642370,,,0,
9028101,,Eiswerderstr. (Berlin),,52.5479380,13.2098050,,,0,
9028151,,Kirchhofstr. (Berlin),,52.5452860,13.2080960,,,0,
9028152,,Neue Bergstr. (Berlin),,52.5507230,13.2098820,,,0,
9029101,,S Spandau Bhf (Berlin),,52.5347980,13.1974770,,,0,
9029102,,Zeppelinstr./Seegefelder Str. (Berlin),,52.5384900,13.1824400,,,0,
9029103,,Falkenseer Platz (Berlin),,52.5409890,13.2019790,,,0,
9029104,,Borkzeile (Berlin),,52.5366320,13.1903340,,,0,
9029105,,Galenstr. (Berlin),,52.5356930,13.1942880,,,0,
9029106,,Borchertweg (Berlin),,52.5436500,13.1931040,,,0,
9029152,,Dallgower Str. (Berlin),,52.5376560,13.1868240,,,0,
9029153,,Jenneweg (Berlin),,52.5409440,13.1949760,,,0,
9029154,,Galenstr./Hohenzollernring (Berlin),,52.5387170,13.1974650,,,0,
9029155,,Askanierring (Berlin),,52.5459470,13.1933870,,,0,
9029156,,Flankenschanze (Berlin),,52.5428390,13.1986090,,,0,
9029157,,Schulzenstr. (Berlin),,52.5390840,13.1787560,,,0,
9029201,,Wröhmännerpark (Berlin),,52.5420450,13.2059580,,,0,
9029202,,Moritzstr. (Berlin),,52.5386030,13.2007200,,,0,
9029203,,Hügelschanze (Berlin),,52.5486580,13.2008320,,,0,
9029204,,Windmühlenberg (Berlin),,52.5486340,13.1943450,,,0,
9029251,,Kurze Str./Mittelstr. (Berlin),,52.5462210,13.2000730,,,0,
9029252,,Predigergarten (Berlin),,52.5453040,13.2036890,,,0,
9029301,,U Altstadt Spandau (Berlin),,52.5391610,13.2067630,,,0,
9029302,,S+U Rathaus Spandau (Berlin),,52.5357980,13.1998910,,,0,
9029303,,Breite Str./Markt (Berlin),,52.5360360,13.2047610,,,0,
9029371,,S+U Rathaus Spandau (Berlin) [Bus Seegef. Str.],,52.5349200,13.1987470,,,0,
9030101,,Krematorium Ruhleben (Berlin),,52.5277590,13.2317950,,,0,
9030102,,Polizeidirektion 2 (Berlin),,52.5283350,13.2282450,,,0,
9030151,,Güterbahnhof Ruhleben (Berlin),,52.5286730,13.2216530,,,0,
9030152,,Heidereuterstr. (Berlin),,52.5287270,13.2076560,,,0,
9030153,,Freiheit 16-43 (Berlin),,52.5308330,13.2214180,,,0,
9030154,,Pichelswerderstr. (Berlin),,52.5318100,13.2137830,,,0,
9030155,,Werkring (Berlin),,52.5289570,13.2375760,,,0,
9030156,,Tiefwerderweg (Berlin),,52.5260890,13.2073030,,,0,
9030191,,Klärwerkstr. (Berlin),,52.5295440,13.2330240,,,0,
9030202,,S Stresow (Berlin),,52.5325050,13.2091300,,,0,
9030251,,Stresowplatz (Berlin),,52.5338590,13.2067650,,,0,
9030272,,S Stresow (Berlin) [Vorplatz],,52.5322670,13.2086670,,,0,
9030291,,Ruhlebener Str./Grunewaldstr. (Berlin),,52.5305620,13.2040220,,,0,
9031101,,Brunsbütteler Damm/Ruhlebener Str. (Berlin),,52.5329570,13.1981930,,,0,
9031102,,Ziegelhof (Berlin),,52.5290410,13.1953450,,,0,
9031103,,Päwesiner Weg (Berlin),,52.5338270,13.1769060,,,0,
9031104,,Krumme Gärten (Berlin),,52.5285280,13.1918830,,,0,
9031151,,Metzer Platz (Berlin),,52.5250500,13.1971670,,,0,
9031152,,Elsflether Weg (Berlin),,52.5339020,13.1936500,,,0,
9031153,,Grünhofer Weg (Berlin),,52.5343160,13.1882080,,,0,
9031154,,Nauener Str. (Berlin),,52.5341040,13.1824550,,,0,
9031155,,Egelpfuhlstr. (Berlin),,52.5335800,13.1701640,,,0,
9031156,,Harburger Weg (Berlin),,52.5332970,13.1632890,,,0,
9032101,,Am Omnibushof (Berlin),,52.5176200,13.1862400,,,0,
9032102,,Heerstr./Wilhelmstr. (Berlin),,52.5166930,13.1791580,,,0,
9032103,,Weinmeisterhornweg (Berlin),,52.5110170,13.1715830,,,0,
9032104,,Melanchthonplatz (Berlin),,52.5216640,13.1889270,,,0,
9032105,,Lutoner Str. (Berlin),,52.5253020,13.1775030,,,0,
9032106,,Gatower Str./Heerstr. (Berlin),,52.5155400,13.1848430,,,0,
9032152,,Földerichplatz (Berlin),,52.5210530,13.1934490,,,0,
9032153,,Kolonie Hasenheide (Berlin),,52.5234060,13.1845980,,,0,
9032155,,Rodensteinstr. (Berlin),,52.5137350,13.1748370,,,0,
9032156,,Karolinenhöhe (Berlin),,52.5084230,13.1675810,,,0,
9032157,,Seecktstr. (Berlin),,52.5277590,13.1878840,,,0,
9032158,,Seeburger Str./Päwesiner Weg (Berlin),,52.5263270,13.1818770,,,0,
9032201,,Gatower Str./Weinmeisterhornweg (Berlin),,52.5091430,13.1801640,,,0,
9032251,,Sandheideweg (Berlin),,52.5124440,13.1826090,,,0,
9032252,,Zur Haveldüne (Berlin),,52.5033960,13.1797160,,,0,
9032253,,Biberburg (Berlin),,52.4981440,13.1800460,,,0,
9032254,,Emil-Basdeck-Str. (Berlin),,52.4934160,13.1801840,,,0,
9032255,,Pfirsichweg (Berlin),,52.4908080,13.1803210,,,0,
9032256,,Gatow Kirche (Berlin),,52.4867450,13.1822140,,,0,
9032301,,Teltower Str. (Berlin),,52.5270190,13.2164500,,,0,
9032302,,Stößenseebrücke (Berlin),,52.5089480,13.2171290,,,0,
9032351,,Freybrücke (Berlin),,52.5122980,13.2006350,,,0,
9032352,,Pichelswerder (Berlin),,52.5106520,13.2087800,,,0,
9032353,,Götelstr. (Berlin),,52.5237440,13.2028040,,,0,
9032401,,Pichelsdorfer Str./Weißenburger Str. (Berlin),,52.5225100,13.1977460,,,0,
9032402,,Alt-Pichelsdorf (Berlin),,52.5132080,13.1969480,,,0,
9032405,,Metzer Str. (Berlin),,52.5254610,13.1938630,,,0,
9032451,,Genfenbergstr. (Berlin),,52.5175950,13.1976270,,,0,
9032452,,Jaczostr. (Berlin),,52.5141550,13.1911990,,,0,
9032481,,Betckestr. (Berlin),,52.5210090,13.1977940,,,0,
9033101,,U Zitadelle (Berlin),,52.5375220,13.2176250,,,0,
9033103,,Zitadelle Spandau (Berlin),,52.5385450,13.2142630,,,0,
9033151,,Motorradwerk (Berlin),,52.5371040,13.2233610,,,0,
9034101,,U Paulsternstr. (Berlin),,52.5380980,13.2485930,,,0,
9034102,,U Haselhorst (Berlin),,52.5387180,13.2323090,,,0,
9034103,,Paulsternstr./Gartenfelder Str. (Berlin),,52.5442800,13.2462030,,,0,
9034104,,Lüdenscheider Weg (Berlin),,52.5471200,13.2367600,,,0,
9034105,,Haselhorster Damm/Gartenfelder Str. (Berlin),,52.5431250,13.2406280,,,0,
9034151,,Siedlung Haselhorst (Berlin),,52.5419160,13.2358770,,,0,
9034153,,Burscheider Weg (Berlin),,52.5449370,13.2383200,,,0,
9034154,,Lüdenscheider Weg/Daumstr. (Berlin),,52.5446910,13.2318270,,,0,
9034155,,Kolonie Haselbusch (Berlin),,52.5527530,13.2308740,,,0,
9034156,,Stadion Haselhorst (Berlin),,52.5464100,13.2306820,,,0,
9034158,,Kleine Eiswerderstr. (Berlin),,52.5491550,13.2276770,,,0,
9034160,,Daumstr./Rhenaniastr. (Berlin),,52.5548100,13.2257560,,,0,
9034161,,Haveleck (Berlin),,52.5578340,13.2271090,,,0,
9034170,,U Haselhorst/Daumstr. (Berlin),,52.5395800,13.2323620,,,0,
9035101,,U Siemensdamm (Berlin),,52.5370260,13.2733230,,,0,
9035103,,Saatwinkler Damm/Rohrdamm (Berlin),,52.5479550,13.2589420,,,0,
9035104,,Quellweg (Berlin),,52.5367620,13.2677740,,,0,
9035105,,Mäckeritzbrücke (Berlin),,52.5486520,13.2702690,,,0,
9035106,,Gartenfeld (Berlin),,52.5483160,13.2477770,,,0,
9035151,,Wernerwerkdamm (Berlin),,52.5354850,13.2669560,,,0,
9035152,,Toeplerstr./Halemweg (Berlin),,52.5381570,13.2866950,,,0,
9035153,,Schweiggerweg (Berlin),,52.5381690,13.2823030,,,0,
9035154,,Goebelplatz (Berlin),,52.5381190,13.2802820,,,0,
9035155,,Popitzweg (Berlin),,52.5368760,13.2788310,,,0,
9035156,,Saatwinkler Damm 137 (Berlin),,52.5484610,13.2628920,,,0,
9036101,,U Rohrdamm (Berlin),,52.5369040,13.2628700,,,0,
9036102,,Wohlrabedamm/Rohrdamm (Berlin),,52.5333850,13.2684280,,,0,
9036103,,Wohlrabedamm Mitte (Berlin),,52.5325560,13.2727520,,,0,
9036151,,Schaltwerk (Berlin),,52.5375650,13.2565360,,,0,
9036152,,Rohrdamm/Wasserwerk (Berlin),,52.5312390,13.2673490,,,0,
9036153,,Straße am Schaltwerk (Berlin),,52.5416360,13.2624010,,,0,
9036154,,Köttgenstr. (Berlin),,52.5439510,13.2610820,,,0,
9036155,,Harriesstr. (Berlin),,52.5461470,13.2599220,,,0,
9037101,,Magistratsweg/Brunsbütteler Damm (Berlin),,52.5329820,13.1578720,,,0,
9037102,,Heidebergplan (Berlin),,52.5408410,13.1472750,,,0,
9037103,,Brunsbütteler Damm/Nennhauser Damm (Berlin),,52.5325820,13.1426240,,,0,
9037104,,Staakener Feldstr. (Berlin),,52.5352830,13.1374330,,,0,
9037105,,Gartenstadt Staaken (Berlin),,52.5396410,13.1495870,,,0,
9037106,,Klosterbuschweg (Berlin),,52.5391720,13.1571510,,,0,
9037107,,Straße 603 (Berlin),,52.5445680,13.1511900,,,0,
9037108,,Eckenerweg (Berlin),,52.5416990,13.1505260,,,0,
9037109,,Döberitzer Weg (Berlin),,52.5286400,13.1329430,,,0,
9037111,,Schulstr. (Berlin),,52.5301840,13.1331300,,,0,
9037113,,Am alten Gaswerk (Berlin),,52.5362920,13.1305610,,,0,
9037114,,Brunsbütteler Damm/Stadtgrenze (Berlin),,52.5353710,13.1244950,,,0,
9037122,,Brandwerder (Berlin),,52.5354800,13.1569650,,,0,
9037130,,Möthlower Str. (Berlin),,52.5479370,13.1374210,,,0,
9037131,,Alfons-Loewe-Str. (Berlin),,52.5490540,13.1333220,,,0,
9037132,,Ungewitterweg (Berlin),,52.5427570,13.1433300,,,0,
9037133,,Seegefelder Weg (Berlin),,52.5463030,13.1437760,,,0,
9037151,,Louise-Schroeder-Siedlung (Berlin),,52.5329040,13.1529630,,,0,
9037152,,Zweiwinkelweg (Berlin),,52.5328230,13.1483780,,,0,
9037154,,Seegefelder Weg/Klosterbuschweg (Berlin),,52.5430830,13.1578440,,,0,
9037155,,Isenburger Weg (Berlin),,52.5402710,13.1355420,,,0,
9037156,,Fachinger Str. (Berlin),,52.5407400,13.1325770,,,0,
9037158,,Oberdorfer Steig (Berlin),,52.5416530,13.1319670,,,0,
9037159,,Hauptstr. (Berlin),,52.5303370,13.1405320,,,0,
9037161,,Am Zeppelinpark (Berlin),,52.5288390,13.1271280,,,0,
9037167,,Ferbitzer Weg (Berlin),,52.5443690,13.1289120,,,0,
9037169,,Jänickendorfer Weg (Berlin),,52.5483850,13.1291030,,,0,
9037171,,Am Kurzen Weg (Berlin),,52.5396430,13.1466100,,,0,
9037191,,Finkenkruger Weg (Berlin),,52.5396110,13.1433960,,,0,
9037201,,Rudolf-Wissell-Siedlung (Berlin),,52.5235240,13.1618380,,,0,
9037202,,Sandstr. (Berlin),,52.5185460,13.1700000,,,0,
9037203,,Hahneberg (Berlin),,52.5234750,13.1466310,,,0,
9037204,,Reimerweg (Berlin),,52.5215800,13.1557750,,,0,
9037205,,Leubnitzer Weg (Berlin),,52.5229660,13.1728730,,,0,
9037206,,Weidenweg (Berlin),,52.5253750,13.1378690,,,0,
9037207,,Heerstr./Magistratsweg (Berlin),,52.5209970,13.1629640,,,0,
9037208,,Blasewitzer Ring (Berlin),,52.5225860,13.1749260,,,0,
9037209,,Buschower Weg (Berlin),,52.5265070,13.1322990,,,0,
9037211,,Heerstr./Nennhauser Damm (Berlin),,52.5289490,13.1231220,,,0,
9037251,,Baluschekweg (Berlin),,52.5239830,13.1663580,,,0,
9037252,,Springerzeile (Berlin),,52.5276390,13.1601630,,,0,
9037254,,Obstallee (Berlin),,52.5198100,13.1730690,,,0,
9037255,,Heerstr. 438-446 (Berlin),,52.5205710,13.1605810,,,0,
9037274,,Reimerweg. (Berlin),,52.5219970,13.1544300,,,0,
9038103,,Landschaftsfriedhof Gatow (Berlin),,52.4983320,13.1528530,,,0,
9038104,,Alt-Gatow (Berlin),,52.4834110,13.1830670,,,0,
9038151,,Annenweg (Berlin),,52.4814550,13.1737550,,,0,
9038152,,Gatower Heide (Berlin),,52.4822810,13.1519030,,,0,
9038201,,Breitehornweg (Berlin),,52.4704070,13.1694730,,,0,
9038202,,Habichtswald (Berlin),,52.4796040,13.1425310,,,0,
9038204,,Ritterfelddamm/Potsdamer Chaussee (Berlin),,52.4775290,13.1199130,,,0,
9038251,,Helleberge (Berlin),,52.4742400,13.1745200,,,0,
9038252,,Am Graben (Berlin),,52.4789020,13.1792510,,,0,
9038254,,Christoph-Kolumbus-Str. (Berlin),,52.4673540,13.1655810,,,0,
9038255,,General-Steinhoff-Kaserne (Berlin),,52.4645240,13.1618570,,,0,
9038256,,Außenweg (Berlin),,52.4851800,13.1355350,,,0,
9039101,,Gutsstr. (Berlin),,52.4749390,13.1209660,,,0,
9039102,,Alt-Kladow (Berlin),,52.4543150,13.1442730,,,0,
9039103,,Hottengrund (Berlin),,52.4455760,13.1259120,,,0,
9039105,,Lanzendorfer Weg (Berlin),,52.4487660,13.1145640,,,0,
9039106,,Parnemannweg (Berlin),,52.4522600,13.1383510,,,0,
9039107,,Krampnitzer Weg/Selbitzer Str. (Berlin),,52.4532700,13.1220330,,,0,
9039108,,Waldallee (Berlin),,52.4655880,13.1290120,,,0,
9039109,,Krankenhaus Havelhöhe (Berlin),,52.4626760,13.1587180,,,0,
9039150,,Landstadt Gatow (Berlin),,52.4725420,13.1273800,,,0,
9039151,,Grimmelshausenstr. (Berlin),,52.4529460,13.1286890,,,0,
9039152,,Pottensteiner Weg (Berlin),,52.4504630,13.1185790,,,0,
9039153,,Neukladower Allee (Berlin),,52.4598110,13.1539350,,,0,
9039154,,Finnenhaus-Siedlung (Berlin),,52.4566160,13.1480110,,,0,
9039155,,Schallweg (Berlin),,52.4560560,13.1407880,,,0,
9039156,,Schwabinger Weg (Berlin),,52.4582210,13.1381370,,,0,
9039157,,Gredinger Str. (Berlin),,52.4616430,13.1337230,,,0,
9039158,,Seekorso (Berlin),,52.4679040,13.1264380,,,0,
9039159,,Kurpromenade (Berlin),,52.4707710,13.1235680,,,0,
9039160,,Gößweinsteiner Gang (Berlin),,52.4508020,13.1320760,,,0,
9039161,,Temmeweg (Berlin),,52.4492590,13.1299330,,,0,
9039162,,Kaserne Hottengrund (Berlin),,52.4472870,13.1274710,,,0,
9039163,,Benfeyweg (Berlin),,52.4574220,13.1239050,,,0,
9039164,,Zingerleweg (Berlin),,52.4604330,13.1267470,,,0,
9039165,,Katzwanger Steig (Berlin),,52.4638420,13.1292470,,,0,
9040101,,S Halensee (Berlin),,52.4966980,13.2901510,,,0,
9040102,,Joachim-Friedrich-Str./Westfälische Str. (Berlin),,52.4958880,13.2959880,,,0,
9040104,,Kurfürstendamm/Joachim-Friedrich-Str. (Berlin),,52.4980410,13.2963460,,,0,
9040151,,Lehniner Platz/Schaubühne (Berlin),,52.4989250,13.3018060,,,0,
9040152,,Seesener Str. (Berlin),,52.4926730,13.2965710,,,0,
9040153,,Grieser Platz (Berlin),,52.4908870,13.2930440,,,0,
9041101,,U Fehrbelliner Platz (Berlin),,52.4902010,13.3145190,,,0,
9041102,,U Blissestr. (Berlin),,52.4863470,13.3216180,,,0,
9041151,,Westfälische Str./Konstanzer Str. (Berlin),,52.4914980,13.3110240,,,0,
9041152,,Hoffmann-von-Fallersleben-Platz (Berlin),,52.4884760,13.3079900,,,0,
9041154,,Mansfelder Str./Barstr. (Berlin),,52.4883760,13.3145820,,,0,
9041201,,U Konstanzer Str. (Berlin),,52.4935670,13.3100840,,,0,
9041251,,Eisenzahnstr. (Berlin),,52.4934530,13.3048980,,,0,
9041252,,Düsseldorfer Str. (Berlin),,52.4969740,13.3116290,,,0,
9041281,,Hochmeisterplatz (Berlin),,52.4946510,13.3013850,,,0,
9042101,,U Spichernstr. (Berlin),,52.4965820,13.3306130,,,0,
9043101,,U Hohenzollernplatz (Berlin),,52.4938330,13.3240510,,,0,
9043103,,Güntzelstr./Uhlandstr. (Berlin),,52.4915420,13.3232460,,,0,
9043151,,Fechnerstr. (Berlin),,52.4895510,13.3228770,,,0,
9043171,,U Blissestr./Fechnerstr. (Berlin),,52.4863280,13.3233840,,,0,
9043201,,U Güntzelstr. (Berlin),,52.4919920,13.3312100,,,0,
9043252,,Landhausstr. (Berlin),,52.4868450,13.3285230,,,0,
9044101,,S Hohenzollerndamm (Berlin),,52.4883140,13.3007120,,,0,
9044102,,Am Volkspark (Berlin),,52.4836650,13.3203600,,,0,
9044104,,Detmolder Str./Blissestr. (Berlin),,52.4791180,13.3203260,,,0,
9044151,,Brabanter Platz (Berlin),,52.4818280,13.3158890,,,0,
9044171,,Friedrichsruher Str. (Berlin),,52.4871890,13.2991920,,,0,
9044201,,U Berliner Str. (Berlin),,52.4870470,13.3313550,,,0,
9044202,,S+U Bundesplatz (Berlin),,52.4773660,13.3291490,,,0,
9044204,,Kufsteiner Str. (Berlin),,52.4858190,13.3366180,,,0,
9044205,,Birger-Forell-Platz (Berlin),,52.4818050,13.3203630,,,0,
9044206,,Durlacher Str. (Berlin),,52.4816490,13.3294400,,,0,
9044251,,Wexstr. (Berlin),,52.4786730,13.3327950,,,0,
9045101,,U Rüdesheimer Platz (Berlin),,52.4724620,13.3143870,,,0,
9045102,,S+U Heidelberger Platz (Berlin),,52.4794460,13.3118430,,,0,
9045103,,Wiesbadener Str./Laubacher Str. (Berlin),,52.4715720,13.3192170,,,0,
9045104,,Zoppoter Str. (Berlin),,52.4733200,13.2993720,,,0,
9045151,,Hanauer Str. (Berlin),,52.4770160,13.3202630,,,0,
9045152,,Deidesheimer Str. (Berlin),,52.4743180,13.3203740,,,0,
9045153,,Laubenheimer Str. (Berlin),,52.4696090,13.3155390,,,0,
9045154,,Görresstr. (Berlin),,52.4756700,13.3248740,,,0,
9045155,,Südwestkorso/Taunusstr. (Berlin),,52.4739340,13.3225700,,,0,
9045156,,Forckenbeckstr./Sportanlagen (Berlin),,52.4783090,13.3090130,,,0,
9045157,,Rudolf-Mosse-Platz (Berlin),,52.4753940,13.3036280,,,0,
9045158,,Kirchstr. (Berlin),,52.4741540,13.2946130,,,0,
9045159,,Sodener Str. (Berlin),,52.4727130,13.3046820,,,0,
9045160,,Binger Str. (Berlin),,52.4723710,13.3095720,,,0,
9046101,,Salzbrunner Str. (Berlin),,52.4842380,13.2937760,,,0,
9046151,,Forckenbeckstr. (Berlin),,52.4819370,13.2896900,,,0,
9046152,,Cunostr. (Berlin),,52.4853730,13.2959730,,,0,
9046203,,Elsterplatz (Berlin),,52.4796470,13.2853540,,,0,
9046251,,Rathaus Schmargendorf (Berlin),,52.4773910,13.2878490,,,0,
9046273,,Elsterplatz. (Berlin),,52.4792930,13.2857410,,,0,
9046301,,Berkaer Str./Breite Str. (Berlin),,52.4753300,13.2906440,,,0,
9046351,,Platz am Wilden Eber (Berlin),,52.4712330,13.2896560,,,0,
9046352,,Sulzaer Str. (Berlin),,52.4759730,13.2859980,,,0,
9046353,,Bernadottestr. (Berlin),,52.4676690,13.2893310,,,0,
9046354,,Roseneck/Teplitzer Str. (Berlin),,52.4774890,13.2804780,,,0,
9047151,,Havelweg (Berlin),,52.4915300,13.2040740,,,0,
9047152,,Waldhaus (Berlin),,52.4804090,13.1973670,,,0,
9047153,,Grunewaldturm (Berlin),,52.4785980,13.1978480,,,0,
9047154,,Lindwerder (Berlin),,52.4671880,13.1965520,,,0,
9047155,,Havelchaussee (Berlin),,52.4597890,13.1906130,,,0,
9047156,,Große Steinlanke (Berlin),,52.4547730,13.1898010,,,0,
9048101,,S Grunewald (Berlin),,52.4886800,13.2619440,,,0,
9048102,,Wangenheimstr. (Berlin),,52.4881560,13.2880760,,,0,
9048103,,Rathenauplatz (Berlin),,52.4959210,13.2872280,,,0,
9048104,,Herthastr. (Berlin),,52.4864700,13.2844050,,,0,
9048107,,Hagenplatz (Berlin),,52.4833170,13.2659120,,,0,
9048108,,Roseneck/Hohenzollerndamm (Berlin),,52.4771190,13.2814530,,,0,
9048109,,Roseneck (Berlin),,52.4764350,13.2815370,,,0,
9048110,,Erdener Str. (Berlin),,52.4902110,13.2759160,,,0,
9048151,,Trabener Steg (Berlin),,52.4975580,13.2829310,,,0,
9048152,,Bismarckplatz (Berlin),,52.4919370,13.2849470,,,0,
9048153,,Lynarstr. (Berlin),,52.4895500,13.2846710,,,0,
9048154,,Elgersburger Str. (Berlin),,52.4828890,13.2856250,,,0,
9048155,,Hasensprung (Berlin),,52.4868030,13.2718710,,,0,
9048156,,Herbertstr. (Berlin),,52.4917830,13.2801280,,,0,
9048157,,Joseph-Joachim-Platz (Berlin),,52.4821190,13.2811720,,,0,
9048158,,Taubertstr. (Berlin),,52.4845980,13.2679800,,,0,
9048159,,Richard-Strauss-Str. (Berlin),,52.4799490,13.2715850,,,0,
9048160,,Hubertusbader Str. (Berlin),,52.4784050,13.2756030,,,0,
9048161,,Delbrückstr. (Berlin),,52.4841780,13.2827920,,,0,
9048162,,Kronberger Str. (Berlin),,52.4759340,13.2796530,,,0,
9049101,,Neuruppiner Str. (Berlin),,52.4211440,13.2266590,,,0,
9049103,,Behring-Krankenhaus (Berlin),,52.4238380,13.2516810,,,0,
9049104,,Fürstenstr. (Berlin),,52.4337570,13.2426400,,,0,
9049105,,Mittelstr. (Berlin),,52.4347380,13.2493430,,,0,
9049150,,Fercher Str. (Berlin),,52.4233330,13.2338940,,,0,
9049151,,Wolzogenstr. (Berlin),,52.4322840,13.2357030,,,0,
9049154,,Ludwigsfelder Str. (Berlin),,52.4243870,13.2397150,,,0,
9049155,,Loebellstr. (Berlin),,52.4260990,13.2452470,,,0,
9049156,,Radtkestr. (Berlin),,52.4269690,13.2479920,,,0,
9049157,,Camphausenstr. (Berlin),,52.4281340,13.2516850,,,0,
9049201,,S Zehlendorf (Berlin),,52.4312090,13.2592270,,,0,
9049202,,S Sundgauer Str. (Berlin),,52.4361870,13.2735010,,,0,
9049203,,Bolchener Str. (Berlin),,52.4338620,13.2757420,,,0,
9049205,,Schönower Park (Berlin),,52.4269280,13.2603400,,,0,
9049206,,Jänickestr. (Berlin),,52.4272280,13.2717130,,,0,
9049207,,Stubenrauchstr. (Berlin),,52.4306060,13.2659880,,,0,
9049208,,Dahlemer Weg (Berlin),,52.4321420,13.2786330,,,0,
9049241,,Zehlendorf Eiche (Berlin),,52.4350780,13.2604550,,,0,
9049251,,Machnower Str./Berlepschstr. (Berlin),,52.4297060,13.2568910,,,0,
9049252,,Schrockstr. (Berlin),,52.4276510,13.2549060,,,0,
9049253,,Machnower Str. (Berlin),,52.4304330,13.2594840,,,0,
9049254,,Schweizerhofpark (Berlin),,52.4249870,13.2620050,,,0,
9049256,,Knesebeckstr. (Berlin),,52.4288980,13.2676890,,,0,
9049257,,Mürwiker Str. (Berlin),,52.4263820,13.2768490,,,0,
9049258,,Rathaus Zehlendorf (Berlin),,52.4334760,13.2581300,,,0,
9049271,,Zehlendorf  Eiche (Berlin),,52.4345140,13.2602180,,,0,
9049301,,Beeskowdamm (Berlin),,52.4096520,13.2672980,,,0,
9049302,,Sachtlebenstr. (Berlin),,52.4091790,13.2517360,,,0,
9049303,,Am Birkenknick (Berlin),,52.4151730,13.2661480,,,0,
9049304,,Ludwigsfelder Str./Sachtlebenstr. (Berlin),,52.4193270,13.2491130,,,0,
9049305,,Leo-Baeck-Str. (Berlin),,52.4220650,13.2637730,,,0,
9049351,,Gutzmannstr. (Berlin),,52.4209540,13.2499680,,,0,
9049352,,Nieritzweg (Berlin),,52.4152950,13.2513070,,,0,
9049353,,Windsteiner Weg (Berlin),,52.4117040,13.2517790,,,0,
9049354,,Laehrstr. (Berlin),,52.4193850,13.2647850,,,0,
9049356,,Am Rehwechsel (Berlin),,52.4121090,13.2669280,,,0,
9049372,,Andréezeile (Berlin),,52.4103380,13.2661130,,,0,
9049374,,Alt-Schönow (Berlin),,52.4070230,13.2677370,,,0,
9050201,,U Krumme Lanke (Berlin),,52.4426150,13.2403600,,,0,
9050202,,Onkel-Tom-Str. (Berlin),,52.4500250,13.2510850,,,0,
9050203,,Scharfestr. (Berlin),,52.4382760,13.2623110,,,0,
9050206,,Altkanzlerstr. (Berlin),,52.4466660,13.2448570,,,0,
9050251,,Holländische Mühle (Berlin),,52.4399990,13.2767430,,,0,
9050253,,Kleinaustr. (Berlin),,52.4353600,13.2643600,,,0,
9050254,,Leichhardtstr. (Berlin),,52.4450590,13.2675790,,,0,
9050255,,Schützallee (Berlin),,52.4421870,13.2654530,,,0,
9050256,,Schützallee/Riemeisterstr. (Berlin),,52.4417240,13.2616890,,,0,
9050257,,Sophie-Charlotte-Str. (Berlin),,52.4445040,13.2606510,,,0,
9050258,,Am Fischtal (Berlin),,52.4465050,13.2583550,,,0,
9050259,,Im Gestell (Berlin),,52.4482340,13.2563450,,,0,
9050261,,Siebenendenweg (Berlin),,52.4483280,13.2475220,,,0,
9050281,,Winfriedstr. (Berlin),,52.4378770,13.2701970,,,0,
9050282,,U Onkel Toms Hütte (Berlin),,52.4501460,13.2540160,,,0,
9050301,,S Mexikoplatz (Berlin),,52.4371660,13.2320600,,,0,
9050302,,Potsdamer Chaussee/Lindenthaler Allee (Berlin),,52.4310780,13.2298320,,,0,
9050303,,Plüschowstr. (Berlin),,52.4373140,13.2522100,,,0,
9050304,,Sven-Hedin-Platz (Berlin),,52.4404480,13.2447250,,,0,
9050351,,Forststr. (Berlin),,52.4401140,13.2363040,,,0,
9050352,,Niklasstr. (Berlin),,52.4338380,13.2297620,,,0,
9050355,,S Schlachtensee (Berlin),,52.4398060,13.2139860,,,0,
9050357,,Hartmannsweilerweg (Berlin),,52.4386690,13.2489250,,,0,
9050381,,Busseallee (Berlin),,52.4357280,13.2500630,,,0,
9050391,,Fischerhüttenstr. (Berlin),,52.4359180,13.2558470,,,0,
9051101,,Pücklerstr. (Berlin),,52.4685780,13.2784090,,,0,
9051151,,Messelstr. (Berlin),,52.4733850,13.2785490,,,0,
9051201,,U Thielplatz (Berlin),,52.4510000,13.2816510,,,0,
9051202,,U Breitenbachplatz (Berlin),,52.4673420,13.3092760,,,0,
9051203,,Am Waldfriedhof (Berlin),,52.4550240,13.2660120,,,0,
9051204,,Königin-Luise-Str./Clayallee (Berlin),,52.4600890,13.2747640,,,0,
9051205,,Domäne Dahlem (Berlin),,52.4587780,13.2871000,,,0,
9051206,,Vogelsang (Berlin),,52.4594680,13.2797780,,,0,
9051251,,Löhleinstr. (Berlin),,52.4536190,13.2854780,,,0,
9051252,,Im Dol (Berlin),,52.4654660,13.2885900,,,0,
9051253,,Drosselweg (Berlin),,52.4612090,13.2874940,,,0,
9051254,,Bachstelzenweg (Berlin),,52.4586320,13.2840060,,,0,
9051255,,Alliiertenmuseum (Berlin),,52.4564790,13.2736600,,,0,
9051256,,Hüttenweg (Berlin),,52.4535190,13.2722360,,,0,
9051257,,Am Hegewinkel (Berlin),,52.4536430,13.2632660,,,0,
9051258,,Waltraudstr. (Berlin),,52.4514850,13.2633070,,,0,
9051259,,Finkenstr. (Berlin),,52.4647350,13.2772970,,,0,
9051281,,Dillenburger Str. (Berlin),,52.4696110,13.3048550,,,0,
9051301,,U Oskar-Helene-Heim (Berlin),,52.4504190,13.2689100,,,0,
9051302,,U Podbielskiallee (Berlin),,52.4641720,13.2952030,,,0,
9051303,,U Dahlem-Dorf (Berlin),,52.4576950,13.2900110,,,0,
9051307,,Königin-Luise-Platz/Botanischer Garten (Berlin),,52.4585960,13.3037200,,,0,
9051309,,Von-Laue-Str. (Berlin),,52.4438760,13.2888270,,,0,
9051310,,Clayallee 229 (Berlin),,52.4484190,13.2693530,,,0,
9051311,,Hittorfstr. (Berlin),,52.4508270,13.2876620,,,0,
9051312,,Limonenstr. (Berlin),,52.4539310,13.2988600,,,0,
9051313,,Altensteinstr./Fabeckstr. (Berlin),,52.4510430,13.2958470,,,0,
9051315,,Reichensteiner Weg (Berlin),,52.4485000,13.2941690,,,0,
9051351,,Schorlemerallee (Berlin),,52.4660120,13.3068230,,,0,
9051352,,Rohlfsstr. (Berlin),,52.4615630,13.3044400,,,0,
9051353,,Arnimallee (Berlin),,52.4578440,13.2993570,,,0,
9051354,,Museen Dahlem (Berlin),,52.4579630,13.2950650,,,0,
9051355,,Ehrenbergstr. (Berlin),,52.4483130,13.2907660,,,0,
9051358,,Bitscher Str. (Berlin),,52.4504260,13.2773830,,,0,
9051371,,U Oskar-Helene-Heim (Berlin) [Bus Clayallee],,52.4503850,13.2704090,,,0,
9052101,,Wannseebadweg (Berlin),,52.4333860,13.1887250,,,0,
9052151,,Wasserwerk Beelitzhof (Berlin),,52.4300340,13.1850620,,,0,
9052152,,Am Sandwerder (Berlin),,52.4272660,13.1860310,,,0,
9052153,,Tillmannsweg (Berlin),,52.4237290,13.1837610,,,0,
9052154,,Großes Fenster (Berlin),,52.4510730,13.1931140,,,0,
9052155,,Kronprinzessinnenweg/Havelchaussee (Berlin),,52.4431650,13.1992830,,,0,
9052156,,Badeweg (Berlin),,52.4319970,13.1864670,,,0,
9052191,,Strandbad Wannsee (Berlin),,52.4382300,13.1806200,,,0,
9052201,,S Nikolassee (Berlin),,52.4312100,13.1932980,,,0,
9052202,,Quantzstr. (Berlin),,52.4237090,13.2036060,,,0,
9052203,,An der Rehwiese (Berlin),,52.4341180,13.1998310,,,0,
9052204,,Prinz-Friedrich-Leopold-Str. (Berlin),,52.4278310,13.1959260,,,0,
9052205,,Isoldestr. (Berlin),,52.4191660,13.1889150,,,0,
9052251,,Nibelungenstr. (Berlin),,52.4187160,13.1808920,,,0,
9052253,,Lückhoffstr. (Berlin),,52.4340130,13.2066810,,,0,
9052271,,Waldhaus-Klinik (Berlin),,52.4245830,13.2059820,,,0,
9052273,,Teutonenstr. (Berlin),,52.4285830,13.1935650,,,0,
9052302,,Spanische Allee/Potsdamer Chaussee (Berlin),,52.4291670,13.2243090,,,0,
9052303,,Schopenhauerstr. (Berlin),,52.4339660,13.2112380,,,0,
9052304,,Clauertstr. (Berlin),,52.4274220,13.2296560,,,0,
9052305,,Kurstr. (Berlin),,52.4281070,13.2181780,,,0,
9052351,,Am Rohrgarten (Berlin),,52.4264320,13.2272030,,,0,
9052352,,Wasgensteig (Berlin),,52.4274140,13.2147630,,,0,
9052353,,Waldfriedhof Zehlendorf (Berlin),,52.4261130,13.2093460,,,0,
9052355,,Krankenhaus Hubertus (Berlin),,52.4324090,13.2184440,,,0,
9052356,,Lloyd-G.-Wells-Str. (Berlin),,52.4237140,13.2257900,,,0,
9053101,,Glienicker Lake (Berlin),,52.4134800,13.0926860,,,0,
9053102,,Pfaueninsel (Berlin),,52.4283620,13.1234590,,,0,
9053151,,Friedenstr. (Berlin),,52.4172500,13.1389040,,,0,
9053152,,Schäferberg (Berlin),,52.4155260,13.1255720,,,0,
9053153,,Nikolskoer Weg (Berlin),,52.4140810,13.1092510,,,0,
9053154,,Schuchardtweg (Berlin),,52.4179420,13.1445220,,,0,
9053155,,Rübezahlweg (Berlin),,52.4255870,13.1326790,,,0,
9053171,,Schloss Glienicke (Berlin),,52.4132210,13.0964720,,,0,
9053202,,Am Kleinen Wannsee (Berlin),,52.4204790,13.1671810,,,0,
9053204,,Rathaus Wannsee (Berlin),,52.4184030,13.1488990,,,0,
9053205,,Wilhelmplatz (Berlin),,52.4127500,13.1423590,,,0,
9053206,,Hahn-Meitner-Platz (Berlin),,52.4115520,13.1333190,,,0,
9053250,,Straße zum Löwen (Berlin),,52.4274190,13.1596600,,,0,
9053251,,Seglerweg (Berlin),,52.4238630,13.1612720,,,0,
9053252,,Koblanckstr. (Berlin),,52.4266450,13.1616390,,,0,
9053253,,Liebermann-Villa (Berlin),,52.4288720,13.1636090,,,0,
9053254,,Am Großen Wannsee (Berlin),,52.4315530,13.1651500,,,0,
9053255,,Haus der Wannsee-Konferenz (Berlin),,52.4328270,13.1635660,,,0,
9053256,,Zum Heckeshorn (Berlin),,52.4301580,13.1608490,,,0,
9053257,,Wernerstr. (Berlin),,52.4195610,13.1599830,,,0,
9053258,,Pfaueninselchaussee/Königstr. (Berlin),,52.4189910,13.1539420,,,0,
9053259,,Charlottenstr./Chausseestr. (Berlin),,52.4154780,13.1456190,,,0,
9053260,,Conradstr. (Berlin),,52.4202640,13.1616180,,,0,
9053271,,Am Birkenhügel (Berlin),,52.4116700,13.1369080,,,0,
9053275,,Wilhelmplatz. (Berlin),,52.4124790,13.1406180,,,0,
9053291,,Wannseebrücke (Berlin),,52.4200380,13.1754300,,,0,
9053301,,S Wannsee Bhf (Berlin),,52.4214570,13.1790990,,,0,
9053303,,Steinstücken (Berlin),,52.3891170,13.1299090,,,0,
9053304,,Kätchenweg (Berlin),,52.3976310,13.1435700,,,0,
9053352,,Hubertusbrücke (Berlin),,52.4051620,13.1435880,,,0,
9053353,,Neue Kreisstr. (Berlin),,52.3996530,13.1417270,,,0,
9053354,,Königsweg (Berlin),,52.3964740,13.1405720,,,0,
9053355,,Stölpchensee (Berlin),,52.4093850,13.1436970,,,0,
9053371,,Stahnsdorfer Brücke (Berlin),,52.3915540,13.1315580,,,0,
9054101,,U Rathaus Schöneberg (Berlin),,52.4833320,13.3419890,,,0,
9054102,,U Kleistpark (Berlin),,52.4908450,13.3609170,,,0,
9054103,,U Eisenacher Str. (Berlin),,52.4895290,13.3502760,,,0,
9054104,,S Schöneberg (Berlin),,52.4798110,13.3528480,,,0,
9054105,,S+U Innsbrucker Platz (Berlin),,52.4781000,13.3428750,,,0,
9054106,,Rathaus Schöneberg (Berlin),,52.4851480,13.3450770,,,0,
9054107,,Dominicusstr./Hauptstr. (Berlin),,52.4817940,13.3483750,,,0,
9054109,,Kaiser-Wilhelm-Platz (Berlin),,52.4869420,13.3571600,,,0,
9054151,,Albertstr. (Berlin),,52.4845100,13.3529780,,,0,
9054153,,Goebenstr. (Berlin),,52.4943300,13.3610540,,,0,
9054173,,Hauptstr./Martin-Luther-Str. (Berlin),,52.4798630,13.3459460,,,0,
9054192,,Grunewaldstr. (Berlin),,52.4890850,13.3450060,,,0,
9055101,,U Viktoria-Luise-Platz (Berlin),,52.4961690,13.3432640,,,0,
9055102,,U Bayerischer Platz (Berlin),,52.4886540,13.3402370,,,0,
9055105,,Hohenstaufenstr. (Berlin),,52.4944290,13.3461560,,,0,
9055106,,Eisenacher Str./Hohenstaufenstr. (Berlin),,52.4945830,13.3491790,,,0,
9055107,,Münchener Str. (Berlin),,52.4942890,13.3426170,,,0,
9055108,,Bamberger Str. (Berlin),,52.4947170,13.3365930,,,0,
9055151,,Barbarossastr. (Berlin),,52.4918610,13.3451640,,,0,
9055152,,Motzstr. (Berlin),,52.4974820,13.3463960,,,0,
9056101,,U Wittenbergplatz (Berlin),,52.5021090,13.3425610,,,0,
9056102,,U Nollendorfplatz (Berlin),,52.4996440,13.3538250,,,0,
9056104,,U Bülowstr. (Berlin),,52.4976570,13.3624520,,,0,
9056105,,An der Urania (Berlin),,52.5010720,13.3468000,,,0,
9056152,,Winterfeldtplatz (Berlin),,52.4946070,13.3557030,,,0,
9057101,,S Yorckstr. S1 (Berlin),,52.4930340,13.3690380,,,0,
9057102,,S+U Yorckstr. S1 U7 (Berlin),,52.4923450,13.3679860,,,0,
9057103,,S+U Yorckstr. (Berlin),,52.4927660,13.3704290,,,0,
9057104,,S Julius-Leber-Brücke (Berlin),,52.4862630,13.3607750,,,0,
9057106,,Torgauer Str. (Berlin),,52.4794450,13.3612570,,,0,
9057107,,Dennewitzplatz (Berlin),,52.4959060,13.3662270,,,0,
9057150,,Hohenfriedbergstr. (Berlin),,52.4850480,13.3648160,,,0,
9057151,,Kesselsdorfstr. (Berlin),,52.4850810,13.3682020,,,0,
9057153,,Gustav-Müller-Platz (Berlin),,52.4835500,13.3614420,,,0,
9057154,,Leuthener Str. (Berlin),,52.4814010,13.3615080,,,0,
9057155,,Katzbachstr. (Berlin),,52.4918150,13.3780260,,,0,
9057171,,Mansteinstr. (Berlin),,52.4933430,13.3671340,,,0,
9058100,,S Südkreuz Bhf/Ostseite (Berlin),,52.4745050,13.3671830,,,0,
9058101,,S Südkreuz Bhf (Berlin),,52.4754680,13.3655790,,,0,
9058102,,S Priesterweg (Berlin),,52.4592390,13.3560280,,,0,
9058103,,S+U Yorckstr. S2 S25 U7 (Berlin),,52.4923230,13.3722260,,,0,
9058104,,Schöneberger Str. (Berlin),,52.4697210,13.3720670,,,0,
9058105,,Lindenhof (Berlin),,52.4599470,13.3616260,,,0,
9058106,,Röblingstr./Arnulfstr. (Berlin),,52.4565750,13.3594470,,,0,
9058107,,Alboinplatz (Berlin),,52.4612550,13.3698030,,,0,
9058108,,S Yorckstr. S2 S25 (Berlin),,52.4926080,13.3716760,,,0,
9058109,,Reichartstr. (Berlin),,52.4726100,13.3671240,,,0,
9058151,,Alboinstr./Arnulfstr. (Berlin),,52.4557450,13.3698670,,,0,
9058152,,Domnauer Str. (Berlin),,52.4558610,13.3644420,,,0,
9058153,,Friedhof Röblingstr. (Berlin),,52.4534930,13.3609560,,,0,
9058155,,Eresburgstr. (Berlin),,52.4668030,13.3702690,,,0,
9058156,,Egelingzeile (Berlin),,52.4635710,13.3699780,,,0,
9058157,,Kolonnenbrücke (Berlin),,52.4850520,13.3729710,,,0,
9058171,,Bessemerstr. (Berlin),,52.4597290,13.3665040,,,0,
9058172,,Suttnerstr. (Berlin),,52.4598000,13.3642250,,,0,
9059101,,Sachsendamm/Gotenstr. (Berlin),,52.4756180,13.3595780,,,0,
9059151,,Sportzentrum Schöneberg (Berlin),,52.4773240,13.3565250,,,0,
9060101,,S Friedenau (Berlin),,52.4700020,13.3405980,,,0,
9060102,,Friedenauer Brücke (Berlin),,52.4673930,13.3367950,,,0,
9060103,,Grazer Platz/Beckerstr. (Berlin),,52.4667680,13.3444280,,,0,
9060104,,Insulaner (Berlin),,52.4590820,13.3484610,,,0,
9060105,,Auguste-Viktoria-Klinikum Süd (Berlin),,52.4603290,13.3463060,,,0,
9060106,,Grazer Platz (Berlin),,52.4669390,13.3474940,,,0,
9060107,,Ceciliengärten (Berlin),,52.4750240,13.3430760,,,0,
9060151,,Brüggemannstr. (Berlin),,52.4634820,13.3480800,,,0,
9060152,,Altmarkstr. (Berlin),,52.4588090,13.3424350,,,0,
9060153,,Rubensstr./S Friedenau (Berlin),,52.4697850,13.3438730,,,0,
9060154,,Auguste-Viktoria-Klinikum (Berlin),,52.4632060,13.3446870,,,0,
9060155,,Planetarium (Berlin),,52.4574870,13.3488390,,,0,
9061101,,U Walther-Schreiber-Platz (Berlin),,52.4649980,13.3284090,,,0,
9061102,,U Friedrich-Wilhelm-Platz (Berlin),,52.4714390,13.3286760,,,0,
9061104,,Kaisereiche (Berlin),,52.4689270,13.3323390,,,0,
9061105,,Breslauer Platz (Berlin),,52.4722010,13.3360280,,,0,
9061153,,Hähnelstr. (Berlin),,52.4755330,13.3402060,,,0,
9061154,,Schillerplatz (Berlin),,52.4715540,13.3240880,,,0,
9062101,,Gritznerstr. (Berlin),,52.4643230,13.3164990,,,0,
9062151,,Paulsenstr. (Berlin),,52.4652580,13.3140550,,,0,
9062152,,Lepsiusstr. (Berlin),,52.4631810,13.3197460,,,0,
9062202,,S+U Rathaus Steglitz (Berlin),,52.4550660,13.3221520,,,0,
9062203,,U Schloßstr. (Berlin),,52.4611830,13.3248360,,,0,
9062206,,Schmidt-Ott-Str. (Berlin),,52.4598870,13.3088780,,,0,
9062251,,Grunewaldstr./Lepsiusstr. (Berlin),,52.4587880,13.3156130,,,0,
9062252,,Kieler Str. (Berlin),,52.4587290,13.3224970,,,0,
9062281,,S Rathaus Steglitz (Berlin),,52.4559610,13.3224730,,,0,
9062282,,S+U Rathaus Steglitz/Kreisel (Berlin),,52.4558890,13.3208520,,,0,
9062781,,S+U Rathaus Steglitz (Berlin) [U9],,52.4564380,13.3199860,,,0,
9062782,,S+U Rathaus Steglitz (Berlin) [Bus Schloßstr.],,52.4567550,13.3205840,,,0,
9062784,,S+U Rathaus Steglitz (Berlin) [Bus Albrechtstr.],,52.4566800,13.3216850,,,0,
9063100,,Filandastr. (Berlin),,52.4581940,13.3316610,,,0,
9063101,,S Feuerbachstr. (Berlin),,52.4635780,13.3324120,,,0,
9063103,,Knausplatz (Berlin),,52.4644570,13.3389430,,,0,
9063104,,Bismarckstr./Bergstr. (Berlin),,52.4585500,13.3391750,,,0,
9063151,,Lauenburger Platz (Berlin),,52.4617930,13.3393180,,,0,
9063152,,Selerweg (Berlin),,52.4544730,13.3388750,,,0,
9063154,,Cranachstr. (Berlin),,52.4627280,13.3432460,,,0,
9063201,,Neue Filandastr. (Berlin),,52.4527960,13.3322340,,,0,
9063202,,Birkbuschstr./Klingsorstr. (Berlin),,52.4475230,13.3263530,,,0,
9063203,,Carmerplatz (Berlin),,52.4523540,13.3203200,,,0,
9063252,,Haydnstr. (Berlin),,52.4495120,13.3237500,,,0,
9063253,,Amfortasweg (Berlin),,52.4457380,13.3244750,,,0,
9063254,,Vionvillestr. (Berlin),,52.4456430,13.3296940,,,0,
9063290,,Robert-Lück-Str. (Berlin),,52.4580580,13.3277880,,,0,
9063291,,Breite Str. (Berlin),,52.4540900,13.3290360,,,0,
9063292,,Heesestr. (Berlin),,52.4550800,13.3265070,,,0,
9063301,,Steglitzer Damm/Bismarckstr. (Berlin),,52.4510200,13.3382110,,,0,
9063302,,Kottesteig (Berlin),,52.4540670,13.3485430,,,0,
9063351,,Stindestr. (Berlin),,52.4482120,13.3401860,,,0,
9063401,,Steglitzer Damm/Halskestr. (Berlin),,52.4500890,13.3466120,,,0,
9063402,,Siemensstr./Halskestr. (Berlin),,52.4471040,13.3427990,,,0,
9063451,,Liebenowzeile (Berlin),,52.4496270,13.3500840,,,0,
9063452,,S Südende (Berlin),,52.4488990,13.3540770,,,0,
9063453,,Hünefeldzeile (Berlin),,52.4486480,13.3571140,,,0,
9064101,,Ostpreußendamm/Königsberger Str. (Berlin),,52.4307800,13.3174990,,,0,
9064102,,Bogenstr. (Berlin),,52.4256410,13.3165810,,,0,
9064103,,Boothstr. (Berlin),,52.4360340,13.3218610,,,0,
9064104,,Herwarthstr. (Berlin),,52.4320860,13.3180820,,,0,
9064151,,Promenadenstr. (Berlin),,52.4340860,13.3200230,,,0,
9064152,,Giesensdorfer Str. (Berlin),,52.4239760,13.3143410,,,0,
9064153,,Hochbergweg (Berlin),,52.4266010,13.3199030,,,0,
9064200,,Blanckertzweg (Berlin),,52.4189520,13.3191450,,,0,
9064201,,S Lichterfelde Süd (Berlin),,52.4099560,13.3086620,,,0,
9064202,,Lippstädter Str. (Berlin),,52.4127720,13.3026610,,,0,
9064204,,Mercatorweg (Berlin),,52.4119190,13.3204340,,,0,
9064205,,Celsiusstr. Nord (Berlin),,52.4162110,13.3159320,,,0,
9064206,,Ostpreußendamm/Osdorfer Str. (Berlin),,52.4209490,13.3101490,,,0,
9064207,,Ostpreußendamm Süd (Berlin),,52.4143600,13.3021350,,,0,
9064208,,Schwatlostr. (Berlin),,52.4204200,13.3116180,,,0,
9064251,,Woltmannweg (Berlin),,52.4139740,13.3182610,,,0,
9064253,,Schwelmer Str. (Berlin),,52.4121560,13.2990570,,,0,
9064256,,S Osdorfer Str. (Berlin),,52.4183730,13.3138650,,,0,
9064257,,Feldstr. (Berlin),,52.4156920,13.3035410,,,0,
9064258,,Ahlener Weg (Berlin),,52.4105170,13.3050640,,,0,
9064271,,Lindenstr. (Berlin),,52.4177130,13.3060850,,,0,
9064272,,Landweg (Berlin),,52.4104330,13.3230640,,,0,
9064273,,Celsiusstr. Süd (Berlin),,52.4109740,13.3141300,,,0,
9064277,,S Lichterfelde Süd (Berlin) [Bus Fürstenstr.],,52.4110980,13.3085640,,,0,
9064278,,S Lichterfelde Süd (Berlin) [Bus Réaumurstr.],,52.4109860,13.3113970,,,0,
9064301,,S Lichterfelde Ost Bhf (Berlin),,52.4290980,13.3280780,,,0,
9064302,,Sondershauser Str. (Berlin),,52.4159480,13.3417200,,,0,
9064303,,Oberhofer Platz (Berlin),,52.4246200,13.3282670,,,0,
9064306,,Amalienstr. (Berlin),,52.4299720,13.3334420,,,0,
9064307,,Saaleckplatz (Berlin),,52.4162150,13.3244570,,,0,
9064308,,Schütte-Lanz-Str./Lichterfelder Ring (Berlin),,52.4109530,13.3296050,,,0,
9064309,,Lange Str. (Berlin),,52.4240080,13.3331740,,,0,
9064321,,Sarntaler Weg (Berlin),,52.4110790,13.3336210,,,0,
9064350,,Oberhofer Weg (Berlin),,52.4176210,13.3328340,,,0,
9064351,,Marienstr. (Berlin),,52.4292730,13.3221140,,,0,
9064352,,Jungfernstieg (Berlin),,52.4280440,13.3250470,,,0,
9064353,,Grabenstr. (Berlin),,52.4212610,13.3264900,,,0,
9064354,,Heinersdorfer Str./Hildburghauser Str. (Berlin),,52.4185750,13.3247190,,,0,
9064355,,Lilienthalpark (Berlin),,52.4142700,13.3263390,,,0,
9064356,,Jägerstr. (Berlin),,52.4265350,13.3314270,,,0,
9064357,,Geraer Str. (Berlin),,52.4209860,13.3349490,,,0,
9064358,,Georgenstr. (Berlin),,52.4187100,13.3366880,,,0,
9064359,,Stanzer Zeile (Berlin),,52.4166440,13.3381840,,,0,
9064360,,Stadtilmer Weg (Berlin),,52.4149770,13.3465260,,,0,
9064361,,Kranoldplatz (Berlin),,52.4271090,13.3267250,,,0,
9064771,,Lindenstr. (Berlin) [Busendstelle],,52.4177130,13.3060850,,,0,
9065103,,Wupperstr. (Berlin),,52.4095510,13.2724830,,,0,
9065151,,Alsterweg (Berlin),,52.4128950,13.2766210,,,0,
9065152,,Persantestr. (Berlin),,52.4149170,13.2799570,,,0,
9066101,,S Lichterfelde West (Berlin),,52.4435120,13.2941410,,,0,
9066102,,S Botanischer Garten (Berlin),,52.4475520,13.3060410,,,0,
9066103,,Unter den Eichen/Drakestr. (Berlin),,52.4458750,13.2933860,,,0,
9066104,,Thielallee/Dahlemer Weg (Berlin),,52.4416760,13.2820270,,,0,
9066105,,Unter den Eichen/Botanischer Garten (Berlin),,52.4516660,13.3102520,,,0,
9066106,,Fabeckstr. (Berlin),,52.4480660,13.3001720,,,0,
9066150,,Drakestr./Gardeschützenweg (Berlin),,52.4423450,13.2973710,,,0,
9066151,,Asternplatz (Berlin),,52.4494450,13.3039200,,,0,
9066152,,Schlossparktheater (Berlin),,52.4540780,13.3188860,,,0,
9066153,,Lipaer Str. (Berlin),,52.4481180,13.3108970,,,0,
9066154,,Tietzenweg (Berlin),,52.4447210,13.3019860,,,0,
9066171,,S Lichterfelde West (Berlin) [Bus],,52.4431160,13.2966590,,,0,
9066181,,Braillestr. (Berlin),,52.4534290,13.3157770,,,0,
9066201,,Carstennstr./Ringstr. (Berlin),,52.4327150,13.2870750,,,0,
9066202,,Luzerner Str. (Berlin),,52.4240420,13.2928940,,,0,
9066203,,Pinnauweg (Berlin),,52.4210870,13.2811360,,,0,
9066204,,Darser Str. (Berlin),,52.4169180,13.2834990,,,0,
9066205,,Hochbaumstr. (Berlin),,52.4299000,13.2889040,,,0,
9066251,,Billy-Wilder-Promenade (Berlin),,52.4177960,13.2870810,,,0,
9066252,,Lichterfelder Weg (Berlin),,52.4199490,13.2948610,,,0,
9066253,,Platz des 4. Juli (Berlin),,52.4223830,13.2867740,,,0,
9066254,,Thuner Platz (Berlin),,52.4236990,13.2962360,,,0,
9066255,,Züricher Str. (Berlin),,52.4271030,13.2907630,,,0,
9066256,,Köhlerstr. (Berlin),,52.4352880,13.2892680,,,0,
9066257,,Johanneskirchplatz (Berlin),,52.4367840,13.2930760,,,0,
9066301,,Appenzeller Str. (Berlin),,52.4219130,13.2985060,,,0,
9066302,,Bundesarchiv (Berlin),,52.4324220,13.2998740,,,0,
9066303,,Holbeinstr. (Berlin),,52.4377230,13.3024710,,,0,
9066351,,Prettauer Pfad (Berlin),,52.4204250,13.3014310,,,0,
9066353,,Engadiner Weg (Berlin),,52.4254240,13.3028430,,,0,
9066354,,Bremer Str. (Berlin),,52.4289120,13.3068570,,,0,
9066355,,Berner Str. (Berlin),,52.4327240,13.2928100,,,0,
9066401,,Goerzallee/Drakestr. (Berlin),,52.4313700,13.3096790,,,0,
9066402,,Karwendelstr. (Berlin),,52.4330380,13.3067880,,,0,
9066404,,Händelplatz (Berlin),,52.4499190,13.3154220,,,0,
9066405,,Hindenburgdamm/Klingsorstr. (Berlin),,52.4434180,13.3157580,,,0,
9066407,,Drakestr./Ringstr. (Berlin),,52.4402150,13.2997940,,,0,
9066408,,Bäkestr. (Berlin),,52.4353920,13.3133280,,,0,
9066409,,Klingsorplatz/Klinikum (Berlin),,52.4439350,13.3209360,,,0,
9066410,,Charité - Campus Benjamin Franklin (Berlin),,52.4410230,13.3160840,,,0,
9066451,,Baseler Str. (Berlin),,52.4377560,13.2953980,,,0,
9066454,,Krahmerstr./Stockweg (Berlin),,52.4384920,13.3157730,,,0,
9066455,,Manteuffelstr. (Berlin),,52.4467570,13.3153130,,,0,
9067101,,Leonorenstr./Siemensstr. (Berlin),,52.4442530,13.3389920,,,0,
9067103,,Mozartstr. (Berlin),,52.4424870,13.3322020,,,0,
9067151,,Gärtnerstr. (Berlin),,52.4399200,13.3271390,,,0,
9067152,,Stadion Lichterfelde (Berlin),,52.4387020,13.3251320,,,0,
9067171,,Teltowkanalstr. (Berlin),,52.4435290,13.3314540,,,0,
9067200,,Kamenzer Damm/Wedellstr. (Berlin),,52.4341920,13.3590520,,,0,
9067201,,Lankwitz Kirche (Berlin),,52.4362590,13.3457490,,,0,
9067202,,Edenkobener Weg (Berlin),,52.4398730,13.3511530,,,0,
9067203,,Wunsiedeler Weg (Berlin),,52.4374880,13.3576830,,,0,
9067204,,Malteserstr./Kamenzer Damm (Berlin),,52.4332610,13.3532590,,,0,
9067205,,Kaiser-Wilhelm-Str./Seydlitzstr. (Berlin),,52.4321960,13.3386850,,,0,
9067221,,S Lankwitz (Berlin),,52.4390340,13.3427600,,,0,
9067251,,Stadtbad Lankwitz (Berlin),,52.4414410,13.3420680,,,0,
9067252,,Kameradenweg (Berlin),,52.4340520,13.3461960,,,0,
9067253,,Havensteinstr. (Berlin),,52.4319290,13.3463230,,,0,
9067254,,Eiswaldtstr. (Berlin),,52.4285780,13.3470440,,,0,
9067255,,Paul-Schneider-Str. (Berlin),,52.4342500,13.3500690,,,0,
9067256,,Langkofelweg (Berlin),,52.4387110,13.3537210,,,0,
9067257,,Dillgesstr. (Berlin),,52.4342580,13.3422470,,,0,
9067258,,Bruchwitzstr. (Berlin),,52.4378920,13.3483430,,,0,
9067301,,Brotteroder Str. (Berlin),,52.4202230,13.3506400,,,0,
9067302,,St. Marien-Krankenhaus (Berlin),,52.4243090,13.3478400,,,0,
9067351,,Blankenhainer Str. (Berlin),,52.4220640,13.3491970,,,0,
9067352,,Maximilian-Kaller-Str. (Berlin),,52.4165840,13.3529400,,,0,
9067401,,Am Gemeindepark (Berlin),,52.4292200,13.3553410,,,0,
9067402,,Preysingstr. (Berlin),,52.4276310,13.3645690,,,0,
9067451,,Emmichstr. (Berlin),,52.4276570,13.3552340,,,0,
9067453,,Marchandstr. (Berlin),,52.4231930,13.3573910,,,0,
9067454,,Friedrichrodaer Str. (Berlin),,52.4204440,13.3587910,,,0,
9067455,,Vom Guten Hirten (Berlin),,52.4157200,13.3616590,,,0,
9067456,,Wedellstr. (Berlin),,52.4293620,13.3585650,,,0,
9067457,,Wichurastr. (Berlin),,52.4283640,13.3625190,,,0,
9067458,,Sonnenscheinpfad (Berlin),,52.4266580,13.3678910,,,0,
9068101,,U Paradestr. (Berlin),,52.4781420,13.3867250,,,0,
9068102,,Dudenstr./Katzbachstr. (Berlin),,52.4849360,13.3767810,,,0,
9068103,,Boelckestr./Hoeppnerstr. (Berlin),,52.4724490,13.3779060,,,0,
9068104,,Rumeyplan (Berlin),,52.4755980,13.3775490,,,0,
9068105,,Hoeppnerstr. (Berlin),,52.4727220,13.3737500,,,0,
9068106,,Bäumerplan (Berlin),,52.4760350,13.3755750,,,0,
9068151,,Gontermannstr. (Berlin),,52.4745290,13.3713480,,,0,
9068152,,Wüsthoffstr. (Berlin),,52.4787980,13.3767360,,,0,
9068153,,Badener Ring (Berlin),,52.4821060,13.3774430,,,0,
9068154,,Monumentenstr. (Berlin),,52.4876940,13.3768670,,,0,
9068156,,Bayernring (Berlin),,52.4825650,13.3812400,,,0,
9068157,,Schreiberring (Berlin),,52.4809070,13.3793630,,,0,
9068158,,Adolf-Scheidt-Platz (Berlin),,52.4781950,13.3783660,,,0,
9068201,,S+U Tempelhof (Berlin),,52.4706940,13.3857540,,,0,
9068202,,U Alt-Tempelhof (Berlin),,52.4659300,13.3857960,,,0,
9068203,,Berlinickeplatz (Berlin),,52.4663260,13.3780980,,,0,
9068204,,Albrechtstr./Manteuffelstr. (Berlin),,52.4610670,13.3767120,,,0,
9068205,,Oberlandstr./Germaniastr. (Berlin),,52.4636880,13.4006750,,,0,
9068251,,Felixstr. (Berlin),,52.4655120,13.3945970,,,0,
9068252,,Oberlandstr./BAB (Berlin),,52.4635160,13.4045400,,,0,
9068253,,Ringbahnstr. (Berlin),,52.4682770,13.3779970,,,0,
9068272,,U Tempelhof/Ringbahnstr. (Berlin),,52.4688060,13.3858420,,,0,
9068301,,S Attilastr. (Berlin),,52.4472980,13.3611770,,,0,
9068302,,U Kaiserin-Augusta-Str. (Berlin),,52.4605120,13.3849050,,,0,
9068304,,Röblingstr./Attilastr. (Berlin),,52.4496500,13.3668390,,,0,
9068341,,Attilaplatz (Berlin),,52.4558460,13.3758580,,,0,
9068342,,Tankredstr. (Berlin),,52.4549520,13.3746970,,,0,
9068343,,Wittekindstr. (Berlin),,52.4555090,13.3738910,,,0,
9068351,,Ringstr./Kurfürstenstr. (Berlin),,52.4454970,13.3685050,,,0,
9068352,,Gersdorfstr./Kurfürstenstr. (Berlin),,52.4472180,13.3712500,,,0,
9068353,,Friedrich-Wilhelm-Str. (Berlin),,52.4584310,13.3761300,,,0,
9068354,,Rathaus Tempelhof (Berlin),,52.4628440,13.3853170,,,0,
9068355,,Chlodwigstr. (Berlin),,52.4528100,13.3718350,,,0,
9068357,,Mergentheimer Str. (Berlin),,52.4447480,13.3554650,,,0,
9069101,,Columbiadamm/Friesenstr. (Berlin),,52.4841180,13.3944790,,,0,
9069151,,Golßener Str. (Berlin),,52.4837450,13.4001200,,,0,
9069201,,Tempelhofer Damm/Ordensmeisterstr. (Berlin),,52.4562030,13.3837840,,,0,
9069202,,Oberlandstr. Mitte (Berlin),,52.4640820,13.4098990,,,0,
9069203,,Komturstr. (Berlin),,52.4592450,13.4009760,,,0,
9069204,,Bergholzstr. (Berlin),,52.4600690,13.4170390,,,0,
9069205,,Industriestr. (Berlin),,52.4553190,13.4099280,,,0,
9069206,,Rohdestr. (Berlin),,52.4600410,13.4073280,,,0,
9069207,,Colditzstr./Ullsteinstr. (Berlin),,52.4531050,13.3965000,,,0,
9069208,,Eschersheimer Str. (Berlin),,52.4651920,13.4214710,,,0,
9069211,,Tempelhofer Damm/U Ullsteinstr. (Berlin),,52.4558760,13.3848480,,,0,
9069251,,Colditzstr. (Berlin),,52.4578310,13.3927950,,,0,
9069252,,Wenckebachstr. (Berlin),,52.4567010,13.3880070,,,0,
9069253,,Oberlandgarten (Berlin),,52.4646200,13.4152280,,,0,
9069254,,Bambachstr. (Berlin),,52.4657940,13.4267290,,,0,
9069257,,Saalburgstr. (Berlin),,52.4577960,13.4132000,,,0,
9069258,,Rixdorfer Str./Ullsteinstr. (Berlin),,52.4525110,13.4079410,,,0,
9069260,,Volkmarstr./Ullsteinstr. (Berlin),,52.4529920,13.3931420,,,0,
9069262,,Volkmarstr. (Berlin),,52.4546540,13.3954900,,,0,
9069271,,U Ullsteinstr. (Berlin),,52.4534500,13.3847710,,,0,
9070101,,U Westphalweg (Berlin),,52.4458010,13.3855610,,,0,
9070102,,Imbrosweg (Berlin),,52.4434910,13.3986370,,,0,
9070103,,Skutaristr. (Berlin),,52.4467750,13.4020650,,,0,
9070104,,Friedhof Mariendorf (Berlin),,52.4496520,13.4050100,,,0,
9070151,,Mariendorfer Damm/Eisenacher Str. (Berlin),,52.4480510,13.3853080,,,0,
9070152,,Kollostr. (Berlin),,52.4476380,13.3914290,,,0,
9070153,,Kosleckweg (Berlin),,52.4472990,13.3957570,,,0,
9070154,,Didostr. (Berlin),,52.4470870,13.3985450,,,0,
9070155,,Goldenes Horn Mitte (Berlin),,52.4421450,13.4044630,,,0,
9070156,,Am Hellespont (Berlin),,52.4446750,13.4071460,,,0,
9070157,,Lerchenweg (Berlin),,52.4479840,13.3871740,,,0,
9070158,,Gradestr. 91 (Berlin),,52.4522850,13.4230710,,,0,
9070159,,Gradestr. 71 (Berlin),,52.4523340,13.4286920,,,0,
9070181,,Dirschelweg (Berlin),,52.4449290,13.4001530,,,0,
9070201,,Gersdorfstr./Kaiserstr. (Berlin),,52.4450370,13.3740650,,,0,
9070202,,Dardanellenweg (Berlin),,52.4448470,13.4107700,,,0,
9070251,,Rathausstr./Kaiserstr. (Berlin),,52.4452700,13.3794990,,,0,
9070252,,Prühßstr. (Berlin),,52.4423740,13.3781440,,,0,
9070254,,Imbrosweg Ost (Berlin),,52.4421210,13.4095210,,,0,
9070301,,U Alt-Mariendorf (Berlin),,52.4396410,13.3874560,,,0,
9070302,,Rotkopfweg (Berlin),,52.4391020,13.4094540,,,0,
9070303,,Rixdorfer Str./Britzer Str. (Berlin),,52.4402820,13.3955940,,,0,
9070304,,Friedenstr./Großbeerenstr. (Berlin),,52.4378100,13.3803400,,,0,
9070305,,Hundsteinweg (Berlin),,52.4343610,13.3900990,,,0,
9070306,,Forddamm (Berlin),,52.4391220,13.3826310,,,0,
9070353,,Am Heidefriedhof (Berlin),,52.4402420,13.3921520,,,0,
9070355,,Goldenes Horn Süd (Berlin),,52.4395540,13.4039680,,,0,
9070381,,Ringstr./Rathausstr. (Berlin),,52.4410390,13.3809110,,,0,
9070401,,Tauernallee/Säntisstr. (Berlin),,52.4233950,13.3963250,,,0,
9070402,,Trabrennbahn (Berlin),,52.4315270,13.3918770,,,0,
9070403,,Sangerhauser Weg (Berlin),,52.4274020,13.4063310,,,0,
9070404,,Richard-Tauber-Damm/Säntisstr. (Berlin),,52.4199930,13.3906020,,,0,
9070405,,Ankogelweg (Berlin),,52.4195250,13.3983340,,,0,
9070451,,Pilatusweg (Berlin),,52.4293330,13.3927930,,,0,
9070452,,Glärnischweg (Berlin),,52.4263920,13.3944490,,,0,
9070453,,Sandsteinweg (Berlin),,52.4169820,13.3997670,,,0,
9070454,,Watzmannweg (Berlin),,52.4255300,13.4004350,,,0,
9070455,,Grünsteinweg (Berlin),,52.4263620,13.4091060,,,0,
9070456,,Tropfsteinweg (Berlin),,52.4235820,13.4146480,,,0,
9070457,,Asbestweg (Berlin),,52.4213280,13.4151790,,,0,
9070701,,U Alt-Mariendorf (Berlin) [Bus Alt-Mariendorf],,52.4402330,13.3875040,,,0,
9070702,,U Alt-Mariendorf (Berlin) [Bus Reißeckstr.],,52.4389650,13.3876110,,,0,
9071101,,Körtingstr. (Berlin),,52.4348230,13.3782910,,,0,
9071102,,Haynauer Str. (Berlin),,52.4351680,13.3655820,,,0,
9071104,,Wilhelm-von-Siemens-Str. (Berlin),,52.4292000,13.3756740,,,0,
9071151,,Döhlauer Pfad (Berlin),,52.4365780,13.3625670,,,0,
9071153,,Greinerstr. (Berlin),,52.4366840,13.3720990,,,0,
9071154,,Porschestr. (Berlin),,52.4372490,13.3760130,,,0,
9071171,,Halbauer Weg (Berlin),,52.4345900,13.3619900,,,0,
9072101,,S Buckower Chaussee (Berlin),,52.4109190,13.3826890,,,0,
9072102,,Nahmitzer Damm/Motzener Str. (Berlin),,52.4091700,13.3762260,,,0,
9072103,,Halker Zeile (Berlin),,52.4127630,13.3925050,,,0,
9072104,,Daimlerstr. (Berlin),,52.4219020,13.3849880,,,0,
9072105,,Titlisweg (Berlin),,52.4231910,13.3823820,,,0,
9072151,,Schwechtenstr. (Berlin),,52.4146170,13.3922990,,,0,
9072152,,Fritz-Werner-Str. (Berlin),,52.4238700,13.3804040,,,0,
9072181,,Großbeerenstr./Daimlerstr. (Berlin),,52.4258750,13.3756440,,,0,
9072191,,Culemeyerstr. (Berlin),,52.4167410,13.3928370,,,0,
9073101,,S Marienfelde (Berlin),,52.4238160,13.3750220,,,0,
9073181,,Belßstr./Marienfelder Allee (Berlin),,52.4251570,13.3725490,,,0,
9073201,,Weskammstr. (Berlin),,52.4143140,13.3502690,,,0,
9073203,,Stadtrandsiedlung (Berlin),,52.4028260,13.3535910,,,0,
9073205,,Nunsdorfer Ring Süd (Berlin),,52.4040260,13.3827080,,,0,
9073206,,Tirschenreuther Ring (Berlin),,52.4132590,13.3552920,,,0,
9073241,,Nahmitzer Damm/Marienfelder Allee (Berlin),,52.4119910,13.3631160,,,0,
9073243,,Friedenfelser Str. (Berlin),,52.4125670,13.3615320,,,0,
9073251,,Lichterfelder Ring/Waldsassener Str. (Berlin),,52.4115410,13.3498750,,,0,
9073253,,Ahrensdorfer Str. (Berlin),,52.4090700,13.3592930,,,0,
9073254,,Baußnernweg (Berlin),,52.4054530,13.3564490,,,0,
9073255,,Friedhof Marienfelde (Berlin),,52.4140950,13.3638430,,,0,
9073256,,Hanielweg (Berlin),,52.4175500,13.3666100,,,0,
9073257,,Erinnerungsstätte Marienfelde (Berlin),,52.4207190,13.3692660,,,0,
9073258,,Hranitzkystr. (Berlin),,52.4224280,13.3707000,,,0,
9073259,,Sperenberger Str. (Berlin),,52.4016010,13.3825730,,,0,
9073260,,Nunsdorfer Ring Nord (Berlin),,52.4065250,13.3795240,,,0,
9073273,,Stadtrandsiedlung (Berlin) [Busendstelle],,52.4022390,13.3522210,,,0,
9073281,,Waldsassener Str. (Berlin),,52.4082160,13.3506550,,,0,
9073305,,Nahmitzer Damm (Berlin),,52.4106950,13.3663830,,,0,
9074101,,Mariendorfer Damm/Buckower Chaussee (Berlin),,52.4145670,13.4011170,,,0,
9074103,,Goethestr./Potsdamer Str. (Berlin),,52.4050610,13.4061490,,,0,
9074104,,Kloster-Zinna-Str. (Berlin),,52.4030380,13.4129910,,,0,
9074105,,Grimmstr. (Berlin),,52.3985120,13.4066460,,,0,
9074150,,Warmensteinacher Str. (Berlin),,52.4136410,13.4258820,,,0,
9074151,,Kettinger Str. (Berlin),,52.4133600,13.3960220,,,0,
9074152,,Raabestr. (Berlin),,52.4103040,13.4035830,,,0,
9074153,,Am Rötepfuhl (Berlin),,52.4153140,13.4205420,,,0,
9074154,,Gerlinger Str. (Berlin),,52.4130780,13.4212050,,,0,
9074155,,Baldersheimer Weg (Berlin),,52.4120950,13.4191890,,,0,
9074156,,Rathenower Str./Töpchiner Weg (Berlin),,52.4101610,13.4178340,,,0,
9074157,,Seltersstr. (Berlin),,52.4076030,13.4160320,,,0,
9074158,,Kambergstr. (Berlin),,52.4051770,13.4144700,,,0,
9074159,,Homburgstr. (Berlin),,52.3998740,13.4108180,,,0,
9074171,,Finchleystr. (Berlin),,52.3937710,13.4047620,,,0,
9074201,,S Lichtenrade (Berlin),,52.3877060,13.3963580,,,0,
9074202,,S Schichauweg (Berlin),,52.3985630,13.3894570,,,0,
9074204,,Barnetstr./Steinstr. (Berlin),,52.3957040,13.3986530,,,0,
9074205,,Lichtenrader Damm/Barnetstr. (Berlin),,52.3937930,13.4067170,,,0,
9074206,,Im Domstift/Groß-Ziethener Str. (Berlin),,52.3943100,13.4123740,,,0,
9074207,,Nahariyastr. (Berlin),,52.3906390,13.4201750,,,0,
9074208,,Goltzstr./Lichtenrader Damm (Berlin),,52.3871140,13.4090890,,,0,
9074209,,Blohmstr./Illigstr. (Berlin),,52.3888130,13.3862720,,,0,
9074210,,Wolziger Zeile (Berlin),,52.3821370,13.3983270,,,0,
9074211,,Pechsteinstr. (Berlin),,52.3854290,13.4244580,,,0,
9074213,,Egestorffstr. (Berlin),,52.3979040,13.3820020,,,0,
9074214,,Rehagener Str. (Berlin),,52.3866620,13.4032580,,,0,
9074251,,Cecilienstr. (Berlin),,52.3886490,13.3887200,,,0,
9074252,,Simpsonweg (Berlin),,52.3981700,13.3930300,,,0,
9074253,,Taunusstr. (Berlin),,52.3946270,13.4166160,,,0,
9074254,,Rennsteig (Berlin),,52.3947630,13.4195440,,,0,
9074256,,Lichtenrader Damm 254 (Berlin),,52.3897110,13.4075860,,,0,
9074257,,Steinstr./Rhinstr. (Berlin),,52.3935110,13.3979520,,,0,
9074258,,John-Locke-Str. (Berlin),,52.3914700,13.4017950,,,0,
9074259,,Nürnberger Str. (Berlin),,52.3849350,13.4116930,,,0,
9074260,,Kolonie Märkische Heide (Berlin),,52.3804690,13.4153840,,,0,
9074261,,Hilbertstr. (Berlin),,52.3846410,13.3963640,,,0,
9074262,,Galluner Str. (Berlin),,52.3820360,13.4038020,,,0,
9074263,,Paplitzer Str. (Berlin),,52.3820390,13.4073270,,,0,
9074264,,Wittelsbacherstr./Augsburger Str. (Berlin),,52.3839100,13.4185050,,,0,
9074265,,Würzburger Str. (Berlin),,52.3882120,13.4247240,,,0,
9074266,,Tietjenstr. (Berlin),,52.3904550,13.4235330,,,0,
9074267,,Bornhagenweg (Berlin),,52.3905980,13.4124030,,,0,
9074268,,Maffeistr. Ost (Berlin),,52.3914060,13.3927880,,,0,
9074269,,Grenzweg Ost (Berlin),,52.3941630,13.3913760,,,0,
9074270,,Illigstr./Grenzweg (Berlin),,52.3942960,13.3862530,,,0,
9074271,,Illigstr./Maffeistr. (Berlin),,52.3910470,13.3858720,,,0,
9074272,,Skarbinastr. (Berlin),,52.3926290,13.4198570,,,0,
9074273,,Riedingerstr. (Berlin),,52.3876190,13.4014080,,,0,
9074274,,Illigstr./Schichauweg (Berlin),,52.3971900,13.3854030,,,0,
9074291,,Birkenhaag (Berlin),,52.3776920,13.4169100,,,0,
9074292,,Kirchhainer Damm/Horstwalder Str. (Berlin),,52.3828860,13.4131990,,,0,
9074293,,Wünsdorfer Str./Blohmstr. (Berlin),,52.3886740,13.3943030,,,0,
9074294,,Kirchhainer Damm/Stadtgrenze (Berlin),,52.3767540,13.4178640,,,0,
9074701,,S Lichtenrade (Berlin) [Bus Bahnhofstr.],,52.3866800,13.3979560,,,0,
9074702,,S Lichtenrade (Berlin) [Bus Prinzessinnenstr.],,52.3866910,13.3962380,,,0,
9075101,,Erkstr. (Berlin),,52.4816750,13.4400790,,,0,
9075102,,Harzer Str./Wildenbruchstr. (Berlin),,52.4863520,13.4463560,,,0,
9075103,,Sonnenallee/Pannierstr. (Berlin),,52.4861680,13.4304660,,,0,
9075104,,Fuldastr. (Berlin),,52.4838190,13.4359100,,,0,
9075151,,Wildenbruchplatz (Berlin),,52.4844330,13.4438060,,,0,
9075152,,Mengerzeile (Berlin),,52.4877040,13.4438540,,,0,
9075153,,Pflügerstr. (Berlin),,52.4898560,13.4339270,,,0,
9075154,,Lohmühlenplatz (Berlin),,52.4896000,13.4401910,,,0,
9075155,,Lohmühlenstr./Heidelberger Str. (Berlin),,52.4915050,13.4424770,,,0,
9076101,,Hertzbergplatz (Berlin),,52.4775000,13.4485680,,,0,
9076151,,Brockenstr. (Berlin),,52.4838110,13.4513520,,,0,
9076152,,Treptower Str./Harzer Str. (Berlin),,52.4824860,13.4537960,,,0,
9076153,,Geygerstr. (Berlin),,52.4798120,13.4439190,,,0,
9076155,,Werrastr. (Berlin),,52.4797780,13.4503950,,,0,
9076191,,Elsenstr. (Berlin),,52.4850270,13.4489040,,,0,
9077100,,Mittelbuschweg (Berlin),,52.4683430,13.4477520,,,0,
9077102,,Dammweg/Sonnenallee (Berlin),,52.4702790,13.4649170,,,0,
9077103,,Naumburger Str. (Berlin),,52.4659440,13.4469080,,,0,
9077104,,Steinbockstr. (Berlin),,52.4720020,13.4680500,,,0,
9077106,,S Sonnenallee (Berlin),,52.4738220,13.4559980,,,0,
9077107,,Grenzallee/Bergiusstr. (Berlin),,52.4656860,13.4562290,,,0,
9077108,,Nobelstr./Bergiusstr. (Berlin),,52.4606660,13.4631700,,,0,
9077110,,S Sonnenallee/Saalestr. (Berlin),,52.4722150,13.4544580,,,0,
9077149,,Jupiterstr. (Berlin),,52.4637620,13.4686730,,,0,
9077150,,Boschweg (Berlin),,52.4639060,13.4642490,,,0,
9077151,,Planetenstr. (Berlin),,52.4669750,13.4646160,,,0,
9077152,,Am Oberhafen (Berlin),,52.4650260,13.4506750,,,0,
9077153,,Ziegrastr. (Berlin),,52.4722350,13.4593890,,,0,
9077154,,Mareschstr. (Berlin),,52.4755090,13.4525950,,,0,
9077155,,S Köllnische Heide (Berlin),,52.4691680,13.4675290,,,0,
9077156,,Schulenburgpark (Berlin),,52.4665450,13.4703550,,,0,
9077157,,Haberstr. (Berlin),,52.4623630,13.4611370,,,0,
9077159,,Neuköllnische Brücke (Berlin),,52.4690510,13.4551630,,,0,
9077171,,Treptower Brücke (Berlin),,52.4814230,13.4525830,,,0,
9077201,,Peter-Anders-Str. (Berlin),,52.4633580,13.4750750,,,0,
9077202,,Neuköllnische Allee/Forsthausallee (Berlin),,52.4601700,13.4748510,,,0,
9077203,,Neuköllnische Allee (Berlin),,52.4681030,13.4606210,,,0,
9077204,,Chris-Gueffroy-Allee (Berlin),,52.4608060,13.4721940,,,0,
9077251,,Schmalenbachstr. (Berlin),,52.4605320,13.4681680,,,0,
9077271,,Michael-Bohnen-Ring (Berlin),,52.4648510,13.4728300,,,0,
9078101,,U Hermannplatz (Berlin),,52.4869570,13.4247200,,,0,
9078102,,U Rathaus Neukölln (Berlin),,52.4811460,13.4348070,,,0,
9078103,,U Karl-Marx-Str. (Berlin),,52.4764290,13.4398050,,,0,
9078104,,U Hermannplatz/Urbanstr. (Berlin),,52.4880280,13.4245780,,,0,
9078105,,U Hermannplatz/Sonnenallee (Berlin),,52.4875550,13.4264770,,,0,
9078106,,U Hermannplatz/Karl-Marx-Str. (Berlin),,52.4860690,13.4245000,,,0,
9078151,,Alfred-Scholz-Platz (Berlin),,52.4797870,13.4371180,,,0,
9078152,,Morusstr. (Berlin),,52.4783450,13.4323160,,,0,
9078154,,Hohenstaufenplatz (Berlin),,52.4910070,13.4234960,,,0,
9078155,,Jahnstr. (Berlin),,52.4896930,13.4206570,,,0,
9078157,,Reuterstr. (Berlin),,52.4842820,13.4288730,,,0,
9078158,,Weichselstr. (Berlin),,52.4831180,13.4314710,,,0,
9078170,,U Hermannplatz (Berlin) [Bus Ostseite],,52.4871040,13.4251220,,,0,
9078171,,U Hermannplatz (Berlin) [Bus Westseite],,52.4869780,13.4244260,,,0,
9078172,,Werbellinstr. (Berlin),,52.4786320,13.4360500,,,0,
9078201,,S+U Neukölln (Berlin),,52.4692820,13.4436920,,,0,
9078251,,Zeitzer Str. (Berlin),,52.4702300,13.4462840,,,0,
9078252,,Niemetzstr. (Berlin),,52.4711020,13.4521400,,,0,
9078253,,Karl-Marx-Platz (Berlin),,52.4740670,13.4404190,,,0,
9078271,,Lahnstr./U Neukölln (Berlin),,52.4676650,13.4421230,,,0,
9078272,,S+U Neukölln (Berlin) [U7],,52.4687640,13.4419090,,,0,
9078273,,S+U Neukölln (Berlin) [Bus],,52.4695710,13.4420830,,,0,
9079101,,Sommerbad Neukölln (Berlin),,52.4805820,13.4159470,,,0,
9079151,,Friedhöfe Columbiadamm (Berlin),,52.4822060,13.4079030,,,0,
9079152,,Fontanestr./Flughafenstr. (Berlin),,52.4802590,13.4211620,,,0,
9079201,,U Leinestr. (Berlin),,52.4728740,13.4284000,,,0,
9079202,,U Boddinstr. (Berlin),,52.4797450,13.4257820,,,0,
9079203,,Herrfurthstr. (Berlin),,52.4774730,13.4263710,,,0,
9079204,,Kranoldstr. (Berlin),,52.4657020,13.4343190,,,0,
9079205,,Hermannstr./Mariendorfer Weg (Berlin),,52.4650110,13.4327370,,,0,
9079206,,Mariendorfer Weg (Berlin),,52.4634470,13.4238870,,,0,
9079220,,S+U Hermannstr./Silbersteinstr. (Berlin),,52.4664320,13.4319590,,,0,
9079221,,S+U Hermannstr. (Berlin),,52.4671810,13.4317040,,,0,
9079251,,Eduard-Müller-Platz (Berlin),,52.4670020,13.4368480,,,0,
9079252,,Haus Bremen (Berlin),,52.4639690,13.4275090,,,0,
9079253,,Emser Str. (Berlin),,52.4690720,13.4357970,,,0,
9080101,,Gradestr./Tempelhofer Weg (Berlin),,52.4524420,13.4331080,,,0,
9080102,,Fulhamer Allee (Berlin),,52.4489710,13.4362760,,,0,
9080103,,Britzer Damm/Gradestr. (Berlin),,52.4526520,13.4387790,,,0,
9080104,,Germaniapromenade (Berlin),,52.4608850,13.4350450,,,0,
9080105,,Karl-Elsasser-Str. (Berlin),,52.4579160,13.4249290,,,0,
9080152,,Wilhelm-Borgmann-Brücke (Berlin),,52.4554690,13.4288080,,,0,
9080153,,Wussowstr. (Berlin),,52.4560870,13.4371840,,,0,
9080171,,Eintrachtsiedlung (Berlin),,52.4543330,13.4306390,,,0,
9080181,,Betriebshof Britz (Berlin),,52.4525610,13.4366720,,,0,
9080201,,U Blaschkoallee (Berlin),,52.4527430,13.4489760,,,0,
9080202,,U Grenzallee (Berlin),,52.4635160,13.4448280,,,0,
9080203,,Franz-Körner-Str. (Berlin),,52.4573650,13.4487600,,,0,
9080204,,U Grenzallee/Jahnstr. (Berlin),,52.4616540,13.4456640,,,0,
9080251,,Riesestr. (Berlin),,52.4523870,13.4450810,,,0,
9080301,,Windröschenweg (Berlin),,52.4399140,13.4159510,,,0,
9080351,,Im Rosengrund (Berlin),,52.4409340,13.4208370,,,0,
9080352,,Am Brandpfuhl (Berlin),,52.4418780,13.4253090,,,0,
9080353,,Neumarkplan (Berlin),,52.4427180,13.4293950,,,0,
9080401,,U Parchimer Allee (Berlin),,52.4453440,13.4499250,,,0,
9080402,,U Britz-Süd (Berlin),,52.4370760,13.4476680,,,0,
9080403,,Buschkrugallee/Parchimer Allee (Berlin),,52.4454360,13.4548700,,,0,
9080405,,Buschkrug (Berlin),,52.4525420,13.4521620,,,0,
9080406,,Britzer Damm/Mohriner Allee (Berlin),,52.4441050,13.4335730,,,0,
9080407,,Buckower Damm/Gutschmidtstr. (Berlin),,52.4404660,13.4349990,,,0,
9080408,,Paster-Behrens-Str. (Berlin),,52.4457290,13.4456420,,,0,
9080451,,Otto-Wels-Ring (Berlin),,52.4352820,13.4533000,,,0,
9080452,,Onkel-Herse-Str. (Berlin),,52.4482330,13.4539620,,,0,
9080453,,Wesenberger Ring (Berlin),,52.4383720,13.4401960,,,0,
9080454,,Jugendheim (Berlin),,52.4369280,13.4443400,,,0,
9080455,,Grüner Weg/Gutschmidtstr. (Berlin),,52.4370400,13.4513720,,,0,
9080456,,Rotkehlchenweg (Berlin),,52.4398020,13.4533310,,,0,
9080462,,Haarlemer Str. (Berlin),,52.4531130,13.4554910,,,0,
9080491,,Kielingerstr. (Berlin),,52.4449780,13.4591940,,,0,
9080601,,Zimmererweg (Berlin),,52.4355890,13.4355320,,,0,
9080602,,Tischlerzeile (Berlin),,52.4269700,13.4472780,,,0,
9080603,,Dachdeckerweg (Berlin),,52.4319930,13.4355620,,,0,
9080651,,Steinträgerweg (Berlin),,52.4244820,13.4405660,,,0,
9080652,,Britzer Garten (Berlin),,52.4280180,13.4350360,,,0,
9080654,,Schlosserweg (Berlin),,52.4380850,13.4349660,,,0,
9081101,,Quarzweg/Marienfelder Chaussee (Berlin),,52.4182620,13.4168590,,,0,
9081151,,Bühler Weg (Berlin),,52.4173020,13.4129040,,,0,
9081152,,Grauwackeweg (Berlin),,52.4158110,13.4068150,,,0,
9081201,,Alt-Buckow (Berlin),,52.4237150,13.4363660,,,0,
9081202,,Stuthirtenweg (Berlin),,52.4176800,13.4485020,,,0,
9081203,,Buckower Damm/Ringslebenstr. (Berlin),,52.4175230,13.4392810,,,0,
9081204,,Pfarrer-Vogelsang-Weg (Berlin),,52.4218910,13.4318520,,,0,
9081250,,Heinrich-Mann-Oberschule (Berlin),,52.4151710,13.4324130,,,0,
9081251,,Rufacher Weg (Berlin),,52.4206700,13.4273000,,,0,
9081252,,Delmer Steig (Berlin),,52.4195800,13.4223250,,,0,
9081253,,Hasenhegerweg (Berlin),,52.4213380,13.4492100,,,0,
9081254,,Dröpkeweg (Berlin),,52.4195810,13.4488590,,,0,
9081255,,Ringslebenstr./Mollnerweg (Berlin),,52.4175970,13.4435600,,,0,
9081256,,Mollnerweg (Berlin),,52.4193600,13.4382670,,,0,
9081257,,An den Achterhöfen (Berlin),,52.4218000,13.4378770,,,0,
9082101,,Klinikum Neukölln (Berlin),,52.4402080,13.4590070,,,0,
9082103,,Kolibriweg (Berlin),,52.4349830,13.4549220,,,0,
9082105,,Johannisthaler Chaussee/Fritz-Erler-Allee (Berlin),,52.4317200,13.4600640,,,0,
9082151,,Rotschwanzweg (Berlin),,52.4374980,13.4565050,,,0,
9082152,,Rudower Str./Grüner Weg (Berlin),,52.4424410,13.4565210,,,0,
9082201,,U Lipschitzallee (Berlin),,52.4246450,13.4631090,,,0,
9082202,,U Johannisthaler Chaussee (Berlin),,52.4292530,13.4538510,,,0,
9082203,,Lipschitzallee/Rudower Str. (Berlin),,52.4321820,13.4735480,,,0,
9082204,,Hörsingsteig (Berlin),,52.4239640,13.4607490,,,0,
9082205,,Lipschitzallee/Fritz-Erler-Allee (Berlin),,52.4277280,13.4681510,,,0,
9082250,,Hugo-Heimann-Str. (Berlin),,52.4248510,13.4573670,,,0,
9082251,,Storchenweg (Berlin),,52.4363360,13.4654220,,,0,
9082252,,Löwensteinring (Berlin),,52.4295460,13.4651090,,,0,
9082253,,Wildmeisterdamm (Berlin),,52.4258790,13.4650610,,,0,
9082254,,Sollmannweg (Berlin),,52.4226800,13.4621610,,,0,
9082255,,Kölner Damm (Berlin),,52.4231190,13.4557080,,,0,
9082256,,Landreiterweg (Berlin),,52.4217550,13.4540750,,,0,
9082257,,Wutzkyallee (Berlin),,52.4256780,13.4740220,,,0,
9082258,,Zadekstr. (Berlin),,52.4380470,13.4623030,,,0,
9082259,,Gesundheitszentrum (Berlin),,52.4292520,13.4706270,,,0,
9082261,,Am Großen Rohrpfuhl (Berlin),,52.4121880,13.4947510,,,0,
9082262,,Lockenhuhnweg (Berlin),,52.4085310,13.4925400,,,0,
9082263,,Schneehuhnweg (Berlin),,52.4050100,13.4909810,,,0,
9082291,,Johannisthaler Ch./Rudower Str. (Berlin),,52.4343010,13.4686630,,,0,
9082293,,Beifußweg (Berlin),,52.4382630,13.4738250,,,0,
9082294,,Birkhuhnweg (Berlin),,52.4363570,13.4717320,,,0,
9082295,,Stelzenweg (Berlin),,52.4402320,13.4759050,,,0,
9082296,,Buchfinkweg (Berlin),,52.4331240,13.4642570,,,0,
9083101,,U Zwickauer Damm (Berlin),,52.4230320,13.4843710,,,0,
9083102,,U Wutzkyallee (Berlin),,52.4231520,13.4748200,,,0,
9083103,,Arnikaweg (Berlin),,52.4298920,13.4776770,,,0,
9083105,,Flurweg/Seidelbastweg (Berlin),,52.4348670,13.4880340,,,0,
9083152,,Frauenschuhweg (Berlin),,52.4335150,13.4912380,,,0,
9083153,,Fuchsienweg (Berlin),,52.4325140,13.4850870,,,0,
9083154,,Goldlackweg (Berlin),,52.4298410,13.4817630,,,0,
9083155,,Schriftsetzerweg (Berlin),,52.4210630,13.4815270,,,0,
9083171,,Fleischerstr. (Berlin),,52.4191050,13.4792860,,,0,
9083181,,Neuköllner Str./Zwickauer Damm (Berlin),,52.4240970,13.4854510,,,0,
9083201,,U Rudow (Berlin),,52.4156140,13.4967340,,,0,
9083202,,Massantebrücke (Berlin),,52.4316540,13.4955130,,,0,
9083204,,August-Froehlich-Str. (Berlin),,52.4241650,13.5140480,,,0,
9083205,,Ascherslebener Weg (Berlin),,52.4105790,13.4798090,,,0,
9083251,,Alt-Rudow/Köpenicker Str. (Berlin),,52.4177860,13.4955720,,,0,
9083252,,Krokusstr. (Berlin),,52.4204200,13.4919420,,,0,
9083253,,Fritz-Erler-Allee/Neuköllner Str. (Berlin),,52.4260160,13.4828990,,,0,
9083254,,Hafenstr. (Berlin),,52.4265500,13.5067490,,,0,
9083255,,Mistelweg (Berlin),,52.4280980,13.5031260,,,0,
9083256,,Kanalstr. 38-41 (Berlin),,52.4303540,13.4981590,,,0,
9083257,,Windenweg (Berlin),,52.4257400,13.4876820,,,0,
9083258,,Glockenblumenweg (Berlin),,52.4279000,13.4903720,,,0,
9083259,,Petunienweg (Berlin),,52.4299330,13.4930140,,,0,
9083260,,Rudower Höhe (Berlin),,52.4208370,13.5156830,,,0,
9083262,,Großenhainer Weg (Berlin),,52.4166550,13.4811730,,,0,
9083263,,Sebnitzer Weg (Berlin),,52.4143410,13.4872690,,,0,
9083264,,Pirnaer Str. (Berlin),,52.4118870,13.4837030,,,0,
9083265,,Rudower Fließ (Berlin),,52.4135200,13.4910630,,,0,
9083266,,Prierosser Str. (Berlin),,52.4186850,13.4976750,,,0,
9083267,,Herzblattweg (Berlin),,52.4210250,13.5030620,,,0,
9083268,,Buchsbaumweg (Berlin),,52.4220300,13.5059920,,,0,
9083269,,Im Bauernbusch/Köpenicker Str. (Berlin),,52.4226960,13.5094690,,,0,
9083271,,Hopfenweg (Berlin),,52.4256230,13.4791510,,,0,
9083301,,Stadtgrenze Rudow (Berlin),,52.4016770,13.5134830,,,0,
9083302,,Kapaunenstr. (Berlin),,52.4009210,13.4859060,,,0,
9083303,,Waltersdorfer Chaussee/Ostburger Weg (Berlin),,52.4097610,13.5054120,,,0,
9083304,,Pfarrer-Heß-Weg (Berlin),,52.4193490,13.5104280,,,0,
9083305,,Hiltrud-Dudek-Weg (Berlin),,52.4023660,13.5129770,,,0,
9083351,,Lieselotte-Berger-Str. (Berlin),,52.4042360,13.5108520,,,0,
9083352,,Narkauer Weg (Berlin),,52.4071210,13.5080110,,,0,
9083353,,Neuhofer Str. (Berlin),,52.4114090,13.5037630,,,0,
9083354,,Eichenauer Weg (Berlin),,52.4135880,13.5013090,,,0,
9083355,,Selgenauer Weg (Berlin),,52.4183920,13.5051620,,,0,
9083356,,Landhaussiedlung (Berlin),,52.4181240,13.5022130,,,0,
9083357,,Künnekeweg (Berlin),,52.4158980,13.5139550,,,0,
9083358,,Will-Meisel-Weg (Berlin),,52.4120160,13.5124700,,,0,
9083359,,Kirchhof Rudow (Berlin),,52.4112360,13.5102830,,,0,
9083360,,Leghornweg (Berlin),,52.4066860,13.4842040,,,0,
9083361,,Lakenfelderweg (Berlin),,52.4087340,13.4813780,,,0,
9083362,,Schönefelder Str./Neuhofer Str. (Berlin),,52.4102870,13.4986400,,,0,
9083363,,Straße 577 (Berlin),,52.4075070,13.4995740,,,0,
9083364,,Knollstr. (Berlin),,52.4035520,13.5003660,,,0,
9083365,,Friederike-Nadig-Str. (Berlin),,52.4012410,13.5018450,,,0,
9083366,,Lieselotte-Berger-Platz (Berlin),,52.4036590,13.5081430,,,0,
9083391,,Ostburger Weg/Lettberger Str. (Berlin),,52.4138920,13.5162090,,,0,
9084101,,S Wilhelmsruh (Berlin),,52.5815880,13.3632840,,,0,
9084102,,Roedernallee/Flottenstr. (Berlin),,52.5788180,13.3469700,,,0,
9084103,,Kopenhagener Str./Flottenstr. (Berlin),,52.5774760,13.3613870,,,0,
9084151,,Weinbrennerweg (Berlin),,52.5829610,13.3438220,,,0,
9084152,,Flottenstr. (Berlin),,52.5782030,13.3505070,,,0,
9084153,,Lengeder Str. (Berlin),,52.5824730,13.3472740,,,0,
9084154,,Interessentenweg (Berlin),,52.5840760,13.3508500,,,0,
9084155,,Montanstr./Lengeder Str. (Berlin),,52.5828730,13.3531440,,,0,
9084156,,Montanstr. (Berlin),,52.5796680,13.3520710,,,0,
9085101,,Aroser Allee/Gotthardstr. (Berlin),,52.5675000,13.3512400,,,0,
9085102,,Gotthardstr./Teichstr. (Berlin),,52.5670240,13.3471990,,,0,
9085103,,Gotthardstr./Holländerstr. (Berlin),,52.5648730,13.3348620,,,0,
9085104,,U Paracelsus-Bad (Berlin),,52.5745340,13.3475320,,,0,
9085105,,S Alt-Reinickendorf (Berlin),,52.5779690,13.3497470,,,0,
9085106,,Dubliner Str. (Berlin),,52.5622660,13.3483650,,,0,
9085107,,Friedhof Reinickendorf (Berlin),,52.5729290,13.3416710,,,0,
9085108,,U Paracelsus-Bad/Aroser Allee (Berlin),,52.5740020,13.3508060,,,0,
9085150,,Brusebergstr. (Berlin),,52.5685660,13.3468040,,,0,
9085151,,Septimerbecken (Berlin),,52.5664650,13.3418720,,,0,
9085152,,Weiße Stadt (Berlin),,52.5703930,13.3512990,,,0,
9085153,,Sebastian-Friedhof (Berlin),,52.5710370,13.3364950,,,0,
9085154,,Lübener Weg (Berlin),,52.5708800,13.3471990,,,0,
9085155,,Grindelwaldweg (Berlin),,52.5643730,13.3527220,,,0,
9085201,,S Schönholz (Berlin),,52.5719010,13.3802420,,,0,
9085202,,U Franz-Neumann-Platz (Am Schäfersee) (Berlin),,52.5638540,13.3642830,,,0,
9085203,,U Residenzstr. (Berlin),,52.5708430,13.3606350,,,0,
9085205,,Kolpingplatz (Berlin),,52.5742640,13.3593690,,,0,
9085206,,Papierstr. (Berlin),,52.5650770,13.3781690,,,0,
9085207,,Pankower Allee/Reginhardstr. (Berlin),,52.5643040,13.3735140,,,0,
9085208,,Emmentaler Str./Reginhardstr. (Berlin),,52.5723990,13.3659790,,,0,
9085209,,Klemkestr. (Berlin),,52.5744800,13.3679470,,,0,
9085210,,Sommerstr. (Berlin),,52.5748010,13.3743440,,,0,
9085250,,Amendestr. (Berlin),,52.5715300,13.3735480,,,0,
9085251,,Genfer Str. (Berlin),,52.5690780,13.3569960,,,0,
9085252,,Stargardtstr. (Berlin),,52.5669100,13.3627110,,,0,
9085253,,Granatenstr. (Berlin),,52.5690100,13.3792070,,,0,
9085255,,Lampesteig (Berlin),,52.5742940,13.3637370,,,0,
9085257,,Raschdorffstr. (Berlin),,52.5702500,13.3700130,,,0,
9085258,,Mittelbruchzeile (Berlin),,52.5670980,13.3728940,,,0,
9085259,,Mickestr. (Berlin),,52.5621610,13.3731520,,,0,
9085260,,Ritterlandweg (Berlin),,52.5600640,13.3694740,,,0,
9085261,,Walderseestr. (Berlin),,52.5609360,13.3648410,,,0,
9085262,,Breitkopfstr. (Berlin),,52.5716920,13.3641570,,,0,
9085265,,Herbststr. (Berlin),,52.5725170,13.3705260,,,0,
9085266,,Reginhardstr./Büdnerring (Berlin),,52.5713650,13.3691620,,,0,
9085281,,Lindauer Allee/Residenzstr. (Berlin),,52.5725250,13.3597580,,,0,
9086101,,U Otisstr. (Berlin),,52.5711220,13.3030740,,,0,
9086102,,U Kurt-Schumacher-Platz (Berlin),,52.5634830,13.3273280,,,0,
9086103,,Eichborndamm/Antonienstr. (Berlin),,52.5715220,13.3124960,,,0,
9086105,,Ollenhauerstr./Lindauer Allee (Berlin),,52.5754450,13.3321600,,,0,
9086106,,Auguste-Viktoria-A./Humboldtstr. (Berlin),,52.5688470,13.3298500,,,0,
9086107,,Uranusweg (Berlin),,52.5666520,13.3172480,,,0,
9086121,,Klamannstr. (Berlin),,52.5751920,13.3418290,,,0,
9086150,,Ollenhauerstr. (Berlin),,52.5645300,13.3261360,,,0,
9086151,,Kapweg (Berlin),,52.5629010,13.3311450,,,0,
9086152,,Hechelstr. (Berlin),,52.5655960,13.3216990,,,0,
9086153,,Von-der-Gablentz-Str. (Berlin),,52.5654110,13.3285370,,,0,
9086154,,Zobeltitzstr. (Berlin),,52.5689260,13.3171980,,,0,
9086155,,General-Woyna-Str. (Berlin),,52.5708200,13.3173730,,,0,
9086156,,Auguste-Viktoria-Allee/Quäkerstr. (Berlin),,52.5720600,13.3085150,,,0,
9086157,,Foxweg (Berlin),,52.5741230,13.3080310,,,0,
9086158,,Otisstr./Quäkerstr. (Berlin),,52.5753790,13.3058260,,,0,
9086159,,Pfahlerstr. (Berlin),,52.5725180,13.3311410,,,0,
9086160,,U Lindauer Allee (Berlin),,52.5753940,13.3390470,,,0,
9086161,,Otisstr. (Berlin),,52.5698020,13.3005270,,,0,
9086162,,Waldstr./Gewerbegebiet (Berlin),,52.5756040,13.3284320,,,0,
9086163,,Lienemannstr. (Berlin),,52.5758460,13.3228340,,,0,
9087101,,U Scharnweberstr. (Berlin),,52.5671110,13.3115240,,,0,
9087103,,Kaserne Südtor (Berlin),,52.5568620,13.3085490,,,0,
9087151,,Luftfracht (Berlin),,52.5503580,13.2952340,,,0,
9087152,,Julius-Leber-Kaserne (Berlin),,52.5617170,13.3261690,,,0,
9087153,,Kaserne Nordtor (Berlin),,52.5599070,13.3176350,,,0,
9087154,,Aristide-Briand-Brücke (Berlin),,52.5543880,13.3063820,,,0,
9087171,,Flughafen Tegel (Airport) (Berlin),,52.5540690,13.2928370,,,0,
9088201,,U Holzhauser Str. (Berlin),,52.5762520,13.2950830,,,0,
9088202,,U Borsigwerke (Berlin),,52.5821390,13.2901220,,,0,
9088203,,Otisstr./Wittestr. (Berlin),,52.5769240,13.3074800,,,0,
9088204,,Holzhauser Str./Wittestr. (Berlin),,52.5795100,13.3003720,,,0,
9088251,,Namslaustr. (Berlin),,52.5788650,13.2928440,,,0,
9088254,,Flohrstr. (Berlin),,52.5729820,13.2973760,,,0,
9089201,,Konradshöher Str./Heiligenseestr. (Berlin),,52.5998860,13.2527110,,,0,
9089251,,Schulzendorfer Weg (Berlin),,52.5991810,13.2597910,,,0,
9089252,,Tegelgrund (Berlin),,52.6048360,13.2697400,,,0,
9089253,,Im Waldwinkel (Berlin),,52.6082870,13.2595800,,,0,
9089301,,U Alt-Tegel (Berlin),,52.5896490,13.2838210,,,0,
9089302,,Heiligenseestr./Ruppiner Chaussee (Berlin),,52.5980580,13.2748860,,,0,
9089303,,S Tegel (Berlin),,52.5888050,13.2886950,,,0,
9089304,,Eschachstr./S Tegel (Berlin),,52.5904090,13.2899230,,,0,
9089352,,Veitstr. (Berlin),,52.5862190,13.2868480,,,0,
9089372,,U Alt-Tegel (Berlin) [Bus],,52.5903960,13.2828390,,,0,
9089375,,S Tegel (Berlin) [Bus],,52.5888110,13.2881050,,,0,
9089391,,An der Mühle (Berlin),,52.5938310,13.2810210,,,0,
9089401,,Gorkistr./Ziekowstr. (Berlin),,52.5904840,13.2912530,,,0,
9089402,,Titusweg (Berlin),,52.5952880,13.2916750,,,0,
9089403,,Bollestr. (Berlin),,52.5913040,13.2985080,,,0,
9089451,,Tegel-Center (Berlin),,52.5907650,13.2869670,,,0,
9089452,,Trettachzeile (Berlin),,52.5872470,13.2947140,,,0,
9089453,,Hermsdorfer Damm/Bundesfernstr. (Berlin),,52.6012230,13.2830670,,,0,
9089454,,Am Tegeler Fließ (Berlin),,52.6034000,13.2895370,,,0,
9089455,,Hatzfeldtallee (Berlin),,52.5928170,13.2916170,,,0,
9089456,,Kettelerpfad (Berlin),,52.5967170,13.2949190,,,0,
9089457,,Im Brachfeldwinkel (Berlin),,52.5983780,13.2983630,,,0,
9089458,,Freie Scholle (Berlin),,52.5999830,13.3020120,,,0,
9089501,,Sterkrader Str. (Berlin),,52.5756180,13.2856380,,,0,
9089502,,Wasserwerk Tegel (Berlin),,52.5752270,13.2643990,,,0,
9089550,,Liesborner Weg (Berlin),,52.5780460,13.2780530,,,0,
9089551,,Mescheder Weg (Berlin),,52.5755240,13.2909610,,,0,
9089552,,Kamener Weg (Berlin),,52.5757360,13.2780440,,,0,
9089553,,Neheimer Str. (Berlin),,52.5758200,13.2727950,,,0,
9089554,,Wassersportclub (Berlin),,52.5728110,13.2608480,,,0,
9089601,,Mäckeritzwiesen (Berlin),,52.5499140,13.2698630,,,0,
9089603,,Tegeler Brücke (Berlin),,52.5528280,13.2494240,,,0,
9089651,,Weg nach Reiswerder (Berlin),,52.5682110,13.2582390,,,0,
9089652,,Maienwerderweg (Berlin),,52.5621730,13.2547330,,,0,
9090101,,Falkenplatz (Berlin),,52.5846510,13.2271500,,,0,
9090102,,Tegelort (Berlin),,52.5706430,13.2303420,,,0,
9090103,,Spechtstr. (Berlin),,52.5858880,13.2326440,,,0,
9090104,,Waldkauzstr. (Berlin),,52.5859420,13.2369680,,,0,
9090151,,Rallenweg (Berlin),,52.5962620,13.2193720,,,0,
9090152,,Rohrweihstr. (Berlin),,52.5903860,13.2244030,,,0,
9090153,,Sperberstr. (Berlin),,52.5872230,13.2260850,,,0,
9090154,,Gerlindeweg (Berlin),,52.5759250,13.2288530,,,0,
9090155,,Schwarzspechtweg (Berlin),,52.5814880,13.2271350,,,0,
9090156,,Försterweg (Berlin),,52.5886860,13.2401000,,,0,
9090157,,Mühlenweg (Berlin),,52.5935430,13.2491360,,,0,
9090171,,Jörsstr. (Berlin),,52.5733520,13.2290910,,,0,
9090191,,Scharfenberg (Berlin),,52.5788630,13.2435550,,,0,
9091101,,Alt-Heiligensee (Berlin),,52.6067620,13.2120610,,,0,
9091102,,Am Dachsbau (Berlin),,52.6065690,13.2298290,,,0,
9091103,,Heiligenseestr./Hennigsdorfer Str. (Berlin),,52.6113100,13.2171620,,,0,
9091104,,Kurzebracker Weg (Berlin),,52.6196580,13.2224880,,,0,
9091151,,Havelblick (Berlin),,52.6026680,13.2098370,,,0,
9091152,,Strandbad Heiligensee (Berlin),,52.5996040,13.2133540,,,0,
9091153,,Gemeindefriedhof (Berlin),,52.5979310,13.2160530,,,0,
9091155,,Wesselburer Weg (Berlin),,52.6075130,13.2237740,,,0,
9091156,,Bekassinenweg (Berlin),,52.6052340,13.2328920,,,0,
9091157,,Reiherallee (Berlin),,52.6025490,13.2387650,,,0,
9091158,,An der Schneise (Berlin),,52.6011220,13.2462520,,,0,
9091159,,Mattenbuder Pfad (Berlin),,52.6173120,13.2207990,,,0,
9091160,,Schönbaumer Weg (Berlin),,52.6145010,13.2189190,,,0,
9091161,,Dorfaue (Berlin),,52.6063130,13.2102040,,,0,
9091201,,Schulzendorfer Str./Ruppiner Chaussee (Berlin),,52.6153500,13.2435560,,,0,
9091203,,S Heiligensee (Berlin),,52.6251480,13.2286670,,,0,
9091205,,S Schulzendorf (Berlin),,52.6135130,13.2456300,,,0,
9091251,,Diakoniezentrum (Berlin),,52.6113250,13.2519460,,,0,
9091252,,Kiefheider Weg (Berlin),,52.6189850,13.2396720,,,0,
9091253,,Ziegenorter Pfad (Berlin),,52.6220960,13.2344440,,,0,
9091254,,Krantorweg (Berlin),,52.6227390,13.2244200,,,0,
9092101,,Invalidensiedlung (Berlin),,52.6551720,13.2847360,,,0,
9092102,,Am Pilz (Berlin),,52.6424150,13.3007610,,,0,
9092103,,Hubertusweg (Berlin),,52.6557930,13.2904140,,,0,
9092151,,Jägerstieg (Berlin),,52.6510820,13.2938960,,,0,
9092201,,S Frohnau (Berlin),,52.6329580,13.2895640,,,0,
9092202,,Hainbuchenstr. (Berlin),,52.6342500,13.2748160,,,0,
9092203,,Donnersmarckplatz (Berlin),,52.6301360,13.2804270,,,0,
9092204,,Maximiliankorso/Sigismundkorso (Berlin),,52.6320420,13.2712070,,,0,
9092205,,Alemannenstr./Maximiliankorso (Berlin),,52.6341450,13.2811650,,,0,
9092251,,Im Fischgrund (Berlin),,52.6295440,13.2943230,,,0,
9092254,,An der Buche (Berlin),,52.6308930,13.2843930,,,0,
9092255,,Benediktinerstr. (Berlin),,52.6308550,13.2729450,,,0,
9092256,,Dominikus-Krankenhaus (Berlin),,52.6262140,13.2948160,,,0,
9092257,,Friedhof Hermsdorf (Berlin),,52.6264350,13.2909820,,,0,
9092258,,Welfenallee (Berlin),,52.6281000,13.2850650,,,0,
9092259,,Im Amseltal (Berlin),,52.6339890,13.2848240,,,0,
9092260,,Markgrafenstr. (Berlin),,52.6371490,13.2950500,,,0,
9092261,,Konzer Platz (Berlin),,52.6392940,13.2986000,,,0,
9092281,,Zeltinger Platz (Berlin),,52.6331560,13.2911510,,,0,
9092282,,Zeltinger Platz/S Frohnau (Berlin),,52.6337800,13.2899580,,,0,
9093101,,Schulzendorfer Str. (Berlin),,52.6106570,13.2956850,,,0,
9093102,,Heinsestr. (Berlin),,52.6200860,13.3029340,,,0,
9093103,,Bergstr. (Berlin),,52.6255230,13.2971580,,,0,
9093104,,Hermsdorfer Damm/Martin-Luther-Str. (Berlin),,52.6147140,13.2994370,,,0,
9093151,,Jugendherberge (Berlin),,52.6052930,13.2914820,,,0,
9093152,,Mühlenfeldstr. (Berlin),,52.6078170,13.2923540,,,0,
9093153,,Drewitzer Str. (Berlin),,52.6169720,13.3016300,,,0,
9093154,,Hohenzollernstr. (Berlin),,52.6219950,13.3009520,,,0,
9093156,,Hohefeldstr. (Berlin),,52.6208090,13.3065880,,,0,
9093201,,S Hermsdorf (Berlin),,52.6181650,13.3068040,,,0,
9093202,,Almutstr. (Berlin),,52.6152720,13.3172310,,,0,
9093203,,Hermsdorfer Damm/Berliner Str. (Berlin),,52.6224290,13.3129120,,,0,
9093204,,Veltheimstr. (Berlin),,52.6271900,13.3114600,,,0,
9093205,,Marthastr. (Berlin),,52.6227880,13.3194350,,,0,
9093206,,Veltheimstr./Schildower Str. (Berlin),,52.6256430,13.3245280,,,0,
9093207,,Amandastr. (Berlin),,52.6261610,13.3191820,,,0,
9093208,,Roswithastr. (Berlin),,52.6229860,13.3031080,,,0,
9093251,,Schildower Str. (Berlin),,52.6177140,13.3158270,,,0,
9093252,,Waldseeweg (Berlin),,52.6205720,13.3134470,,,0,
9093253,,Olafstr. (Berlin),,52.6269060,13.3054700,,,0,
9093291,,Loerkesteig (Berlin),,52.6263610,13.3002250,,,0,
9094101,,S Waidmannslust (Berlin),,52.6068140,13.3205490,,,0,
9094102,,Waidmannsluster Damm/Oraniendamm (Berlin),,52.6078290,13.3237980,,,0,
9094103,,Zabel-Krüger-Damm/Titiseestr. (Berlin),,52.6104970,13.3343610,,,0,
9094151,,Zehntwerderweg (Berlin),,52.6113080,13.3181450,,,0,
9094152,,Waldhornstr. (Berlin),,52.6020020,13.3063520,,,0,
9094153,,Dianastr. (Berlin),,52.6038010,13.3103030,,,0,
9094154,,Schonacher Str. (Berlin),,52.6089510,13.3279650,,,0,
9094181,,Titiseestr. (Berlin),,52.6075390,13.3320710,,,0,
9094191,,Am Dianaplatz (Berlin),,52.6053730,13.3143650,,,0,
9095101,,Alt-Lübars (Berlin),,52.6202050,13.3555070,,,0,
9095102,,Am Vierrutenberg (Berlin),,52.6136570,13.3441420,,,0,
9095151,,Öschelbronner Weg (Berlin),,52.6114930,13.3376830,,,0,
9095152,,Sprintsteig (Berlin),,52.6158120,13.3491250,,,0,
9095153,,Zabel-Krüger-Damm/Alt-Lübars (Berlin),,52.6179090,13.3543720,,,0,
9095154,,Welzower Steig (Berlin),,52.6075290,13.3425370,,,0,
9095155,,Bruchstückgraben (Berlin),,52.6066490,13.3487100,,,0,
9096101,,S+U Wittenau (Berlin),,52.5963920,13.3354810,,,0,
9096102,,Hermsdorfer Str./Alt-Wittenau (Berlin),,52.5932880,13.3221790,,,0,
9096103,,Gorkistr./Am Nordgraben (Berlin),,52.5918920,13.3046500,,,0,
9096104,,Borsigwalder Weg (Berlin),,52.5847490,13.2980190,,,0,
9096105,,Am Kesselpfuhl (Berlin),,52.5928200,13.3101820,,,0,
9096107,,Schubartstr./Ernststr. (Berlin),,52.5842300,13.3026370,,,0,
9096151,,Lange Enden (Berlin),,52.5976430,13.3233580,,,0,
9096152,,Am Hügel (Berlin),,52.5938900,13.3165890,,,0,
9096153,,Conradstr./Ernststr. (Berlin),,52.5832170,13.3000250,,,0,
9096154,,In den Kaveln (Berlin),,52.5891660,13.3130530,,,0,
9096191,,Cyclopstr. (Berlin),,52.6025210,13.3243760,,,0,
9096192,,Humboldt-Klinikum (Berlin),,52.5903750,13.3094000,,,0,
9096193,,Göschenplatz/S Wittenau (Berlin),,52.5974050,13.3325600,,,0,
9096197,,S+U Wittenau (Berlin) [U8],,52.5956650,13.3346480,,,0,
9096198,,S+U Wittenau (Berlin) [Bus Wilhelmsruher Damm],,52.5957410,13.3358300,,,0,
9096202,,Oranienburger Str./Hermsdorfer Str. (Berlin),,52.6044720,13.3266490,,,0,
9096203,,Dietrichinger Weg (Berlin),,52.6016460,13.3302540,,,0,
9096251,,Bernshausener Ring (Berlin),,52.6028000,13.3314700,,,0,
9096271,,Wittenauer Str./Eichhorster Weg (Berlin),,52.6039830,13.3357710,,,0,
9096291,,Blitzenroder Ring (Berlin),,52.6056840,13.3387900,,,0,
9096301,,Schorfheidestr./Eichhorster Weg (Berlin),,52.5963650,13.3474350,,,0,
9096302,,Eichhorster Weg/Finsterwalder Str. (Berlin),,52.6000840,13.3412760,,,0,
9096303,,Märkisches Zentrum (Berlin),,52.5965930,13.3541870,,,0,
9096304,,Quickborner Str. (Berlin),,52.6061110,13.3643420,,,0,
9096305,,Wilhelmsruher Damm/Treuenbrietzener Str. (Berlin),,52.5969070,13.3605130,,,0,
9096306,,Schorfheidestr./Dannenwalder Weg (Berlin),,52.5914900,13.3461790,,,0,
9096307,,Wilhelmsruher Damm (Berlin),,52.5972760,13.3667230,,,0,
9096308,,Finsterwalder Str./Dannenwalder Weg (Berlin),,52.5959550,13.3391720,,,0,
9096309,,Calauer Str. (Berlin),,52.6040160,13.3495000,,,0,
9096310,,Märkische Zeile (Berlin),,52.5983170,13.3559230,,,0,
9096311,,Senftenberger Ring Ost (Berlin),,52.6046300,13.3617860,,,0,
9096312,,Quickborner Str./Treuenbrietzener Str. (Berlin),,52.6024820,13.3673290,,,0,
9096313,,Teschendorfer Weg (Berlin),,52.5944680,13.3608800,,,0,
9096314,,Atrium (Berlin),,52.6009360,13.3532580,,,0,
9096350,,Zerpenschleuser Ring Süd (Berlin),,52.6025480,13.3693970,,,0,
9096352,,Engelroder Weg (Berlin),,52.6023510,13.3473970,,,0,
9096354,,Zur Maarer Str. (Berlin),,52.5982570,13.3390660,,,0,
9096355,,Zerpenschleuser Ring (Berlin),,52.6043100,13.3662040,,,0,
9096356,,Gandenitzer Weg (Berlin),,52.6011430,13.3641580,,,0,
9096357,,Packereigraben (Berlin),,52.5997510,13.3609410,,,0,
9096358,,Tramper Weg (Berlin),,52.5925230,13.3580160,,,0,
9096359,,Wentowsteig (Berlin),,52.5923820,13.3546180,,,0,
9096360,,Tornower Weg (Berlin),,52.5920760,13.3491920,,,0,
9096361,,Sallgaster Str. (Berlin),,52.5934940,13.3422850,,,0,
9096362,,Tiefenseer Str. (Berlin),,52.5970860,13.3636920,,,0,
9096363,,Königshorster Str. (Berlin),,52.5965310,13.3510260,,,0,
9096364,,Wesendorfer Str. (Berlin),,52.6017840,13.3592470,,,0,
9096365,,Senftenberger Ring Nord (Berlin),,52.6051420,13.3555580,,,0,
9096401,,Oranienburger Str./Alt-Wittenau (Berlin),,52.5896930,13.3342150,,,0,
9096402,,Wittenau Kirche (Berlin),,52.5918930,13.3264160,,,0,
9096404,,Alt-Wittenau/Roedernallee (Berlin),,52.5891430,13.3391710,,,0,
9096405,,S Eichborndamm (Berlin),,52.5775450,13.3155830,,,0,
9096406,,Am Nordgraben/Oranienburger Str. (Berlin),,52.5873960,13.3346910,,,0,
9096407,,U Wittenau (Berlin) [Bus],,52.5955090,13.3333000,,,0,
9096408,,Olbendorfer Weg (Berlin),,52.5821320,13.3192900,,,0,
9096409,,Tessenowstr. (Berlin),,52.5813840,13.3339180,,,0,
9096410,,U Rathaus Reinickendorf (Berlin),,52.5882180,13.3255680,,,0,
9096451,,Schmitzweg (Berlin),,52.5860350,13.3414370,,,0,
9096453,,Rathauspromenade (Berlin),,52.5873630,13.3296730,,,0,
9096454,,Techowpromenade (Berlin),,52.5930680,13.3338310,,,0,
9096455,,Rotbuchenweg (Berlin),,52.5837780,13.3207120,,,0,
9096456,,Kienhorststr. (Berlin),,52.5747800,13.3136560,,,0,
9096457,,Jansenstr. (Berlin),,52.5846980,13.3349040,,,0,
9096458,,S+U Karl-Bonhoeffer-Nervenklinik (Berlin),,52.5781690,13.3329210,,,0,
9096459,,Schule am Park (Berlin),,52.5942810,13.3298530,,,0,
9096471,,Landesarchiv (Berlin),,52.5805830,13.3179460,,,0,
9097101,,Holzhauser Str./Schubartstr. (Berlin),,52.5820600,13.3054640,,,0,
9097102,,Pannwitzstr. (Berlin),,52.5865740,13.3231130,,,0,
9097103,,Triftstr./Am Nordgraben (Berlin),,52.5882220,13.3171570,,,0,
9097105,,Holzhauser Str./Triftstr. (Berlin),,52.5867060,13.3160780,,,0,
9097151,,Innungsstr. (Berlin),,52.5792190,13.3088460,,,0,
9097152,,Miraustr. (Berlin),,52.5839030,13.3095020,,,0,
9100001,,S+U Friedrichstr. Bhf (Berlin),,52.5202700,13.3871530,,,0,
9100002,,S Hackescher Markt (Berlin),,52.5226070,13.4023580,,,0,
9100003,,S+U Alexanderplatz Bhf (Berlin),,52.5215120,13.4112670,,,0,
9100004,,S+U Jannowitzbrücke (Berlin),,52.5155000,13.4180270,,,0,
9100005,,U Alexanderplatz (Berlin) [Tram],,52.5223900,13.4144920,,,0,
9100007,,S Oranienburger Str. (Berlin),,52.5251610,13.3930680,,,0,
9100008,,U Heinrich-Heine-Str. (Berlin),,52.5108580,13.4161690,,,0,
9100009,,U Naturkundemuseum (Berlin),,52.5312540,13.3824150,,,0,
9100010,,U Mohrenstr. (Berlin),,52.5115190,13.3837980,,,0,
9100011,,U Stadtmitte (Berlin),,52.5114950,13.3897190,,,0,
9100012,,U Hausvogteiplatz (Berlin),,52.5133610,13.3953460,,,0,
9100013,,U Spittelmarkt (Berlin),,52.5113010,13.4023520,,,0,
9100014,,U Märkisches Museum (Berlin),,52.5120070,13.4087670,,,0,
9100015,,U Klosterstr. (Berlin),,52.5172290,13.4124550,,,0,
9100016,,U Rosa-Luxemburg-Platz (Berlin),,52.5281910,13.4104050,,,0,
9100017,,U Schillingstr. (Berlin),,52.5203160,13.4218950,,,0,
9100018,,U Stadtmitte/Krausenstr. (Berlin),,52.5095500,13.3908070,,,0,
9100019,,U Oranienburger Tor (Berlin),,52.5251630,13.3875870,,,0,
9100020,,S+U Potsdamer Platz Bhf (Berlin),,52.5093400,13.3764540,,,0,
9100022,,S Potsdamer Platz Bhf/Voßstr. (Berlin),,52.5101470,13.3766560,,,0,
9100023,,U Rosenthaler Platz (Berlin),,52.5297810,13.4013930,,,0,
9100024,,S+U Alexanderplatz Bhf/Dircksenstr. (Berlin),,52.5218270,13.4112330,,,0,
9100025,,S+U Brandenburger Tor (Berlin),,52.5165110,13.3819370,,,0,
9100026,,S+U Alexanderplatz Bhf/Gontardstr. (Berlin),,52.5210630,13.4112520,,,0,
9100027,,U Französische Str. (Berlin),,52.5147710,13.3900880,,,0,
9100030,,Memhardstr. (Berlin),,52.5242150,13.4121930,,,0,
9100031,,S+U Alexanderplatz Bhf/Memhardstr. (Berlin),,52.5230980,13.4109640,,,0,
9100032,,Heinrich-Heine-Str./Annenstr. (Berlin),,52.5082890,13.4137450,,,0,
9100033,,Schumannstr. (Berlin),,52.5240540,13.3793890,,,0,
9100035,,Bundeswehrkrankenhaus (Berlin),,52.5346860,13.3700840,,,0,
9100036,,Robert-Koch-Platz (Berlin),,52.5283730,13.3797600,,,0,
9100037,,S+U Brandenburger Tor/Glinkastr. (Berlin),,52.5167020,13.3840940,,,0,
9100038,,Am Kupfergraben (Berlin),,52.5194180,13.3953910,,,0,
9100040,,Mollstr./Otto-Braun-Str. (Berlin),,52.5251830,13.4199450,,,0,
9100041,,Brunnenstr./Invalidenstr. (Berlin),,52.5325480,13.3991970,,,0,
9100042,,Zionskirchplatz (Berlin),,52.5342540,13.4053970,,,0,
9100043,,Sredzkistr. (Berlin),,52.5379470,13.4122360,,,0,
9100045,,Berliner Rathaus (Berlin),,52.5172450,13.4088760,,,0,
9100047,,Friedrichstr./Reinhardtstr. (Berlin),,52.5237070,13.3868340,,,0,
9100051,,U Weinmeisterstr. (Berlin),,52.5253760,13.4053050,,,0,
9100080,,U Weinmeisterstr./Gipsstr. (Berlin),,52.5254870,13.4035260,,,0,
9100501,,U Schwartzkopffstr. (Berlin),,52.5353970,13.3770330,,,0,
9100502,,Scharnhorststr./Habersaathstr. (Berlin),,52.5305330,13.3740510,,,0,
9100503,,Invalidenpark (Berlin),,52.5287650,13.3769290,,,0,
9100504,,Pappelplatz (Berlin),,52.5323260,13.3951960,,,0,
9100506,,Torstr./U Oranienburger Tor (Berlin),,52.5272950,13.3873890,,,0,
9100508,,Philippstr. (Berlin),,52.5272830,13.3830420,,,0,
9100509,,Deutsches Theater (Berlin),,52.5231280,13.3832650,,,0,
9100510,,Tucholskystr. (Berlin),,52.5284730,13.3942050,,,0,
9100512,,Monbijouplatz (Berlin),,52.5236590,13.3984720,,,0,
9100513,,Unter den Linden/Friedrichstr. (Berlin),,52.5169960,13.3888760,,,0,
9100514,,Staatsoper (Berlin),,52.5173670,13.3947660,,,0,
9100515,,Spandauer Str./Marienkirche (Berlin),,52.5200250,13.4048250,,,0,
9100516,,U Märkisches Museum/Inselstr. (Berlin),,52.5123530,13.4120930,,,0,
9100518,,Alexanderstr. (Berlin),,52.5177450,13.4181290,,,0,
9100519,,Lichtenberger Str. (Berlin),,52.5138180,13.4233500,,,0,
9100520,,Marschallbrücke (Berlin),,52.5205510,13.3800010,,,0,
9100521,,Michaelkirchstr. (Berlin),,52.5093510,13.4226160,,,0,
9100523,,Köpenicker Str./Adalbertstr. (Berlin),,52.5085970,13.4255380,,,0,
9100526,,Fischerinsel (Berlin),,52.5140540,13.4058570,,,0,
9100527,,Jerusalemer Str. (Berlin),,52.5108390,13.3958120,,,0,
9100528,,U Stadtmitte/Leipziger Str. (Berlin),,52.5103240,13.3899180,,,0,
9100530,,Werderscher Markt (Berlin),,52.5153060,13.3973380,,,0,
9100531,,Neumannsgasse (Berlin),,52.5151910,13.4039930,,,0,
9100535,,Leipziger Str./Wilhelmstr. (Berlin),,52.5100050,13.3842070,,,0,
9100537,,Lustgarten (Berlin),,52.5180120,13.4003110,,,0,
9100539,,Nikolaiviertel (Berlin),,52.5162090,13.4082830,,,0,
9100540,,Universitätsstr. (Berlin),,52.5189740,13.3918410,,,0,
9100541,,Georgenstr./Am Kupfergraben (Berlin),,52.5204840,13.3941580,,,0,
9100542,,Charité - Campus Mitte (Berlin),,52.5257560,13.3790890,,,0,
9100543,,Behrenstr./Wilhelmstr. (Berlin),,52.5145080,13.3818300,,,0,
9100544,,Heinrich-Heine-Platz (Berlin),,52.5065950,13.4178580,,,0,
9100546,,Adalbertstr. (Berlin),,52.5052860,13.4221460,,,0,
9100560,,Littenstr. (Berlin),,52.5193610,13.4130690,,,0,
9100701,,U Stadtmitte U2 (Berlin),,52.5121690,13.3897110,,,0,
9100703,,S+U Alexanderplatz (Berlin) [U2],,52.5220780,13.4135980,,,0,
9100704,,S+U Alexanderplatz (Berlin) [U5],,52.5216070,13.4131110,,,0,
9100705,,S+U Alexanderplatz (Berlin) [U8],,52.5216190,13.4121250,,,0,
9100709,,U Naturkundemuseum (Berlin) [Invalidenstr.],,52.5303390,13.3822240,,,0,
9100710,,U Naturkundemuseum (Berlin) [Chausseestr.],,52.5302770,13.3837400,,,0,
9100719,,U Oranienburger   Tor (Berlin),,52.5246410,13.3876440,,,0,
9100726,,Fischerinsel. (Berlin),,52.5135710,13.4064460,,,0,
9100819,,U Oranienburger  Tor (Berlin),,52.5260990,13.3882500,,,0,
9110001,,S+U Schönhauser Allee (Berlin),,52.5493360,13.4151380,,,0,
9110002,,S Prenzlauer Allee (Berlin),,52.5448020,13.4274190,,,0,
9110003,,S Greifswalder Str. (Berlin),,52.5407240,13.4383560,,,0,
9110004,,S Landsberger Allee (Berlin),,52.5287720,13.4559440,,,0,
9110005,,U Senefelderplatz (Berlin),,52.5326220,13.4126250,,,0,
9110006,,U Eberswalder Str. (Berlin),,52.5410850,13.4121600,,,0,
9110007,,Schönhauser Allee/Bornholmer Str. (Berlin),,52.5537640,13.4145430,,,0,
9110008,,Schönfließer Str. (Berlin),,52.5540400,13.4087280,,,0,
9110009,,U Eberswalder Str./Pappelallee (Berlin),,52.5419610,13.4133380,,,0,
9110010,,Björnsonstr. (Berlin),,52.5544480,13.4031380,,,0,
9110011,,S Bornholmer Str. (Berlin),,52.5547540,13.3978400,,,0,
9110012,,S Storkower Str. (Berlin),,52.5241950,13.4648840,,,0,
9110013,,Prenzlauer Allee/Ostseestr. (Berlin),,52.5512220,13.4301780,,,0,
9110015,,Stahlheimer Str./Wisbyer Str. (Berlin),,52.5526680,13.4242390,,,0,
9110016,,Greifswalder Str./Ostseestr. (Berlin),,52.5454740,13.4446150,,,0,
9110017,,Prenzlauer Allee/Danziger Str. (Berlin),,52.5391790,13.4242440,,,0,
9110018,,Friedrich-Ludwig-Jahn-Sportpark (Berlin),,52.5408730,13.4058000,,,0,
9110019,,Am Friedrichshain (Berlin),,52.5280150,13.4251350,,,0,
9110020,,Greifswalder Str./Danziger Str. (Berlin),,52.5361510,13.4330630,,,0,
9110021,,Kniprodestr./Danziger Str. (Berlin),,52.5321120,13.4415230,,,0,
9110022,,Mollstr./Prenzlauer Allee (Berlin),,52.5268670,13.4159620,,,0,
9110025,,Arnswalder Platz (Berlin),,52.5340940,13.4373880,,,0,
9110026,,Kniprodestr./Storkower Str. (Berlin),,52.5371810,13.4495600,,,0,
9110027,,Conrad-Blenkle-Str. (Berlin),,52.5341050,13.4446690,,,0,
9110028,,Michelangelostr. (Berlin),,52.5426950,13.4521740,,,0,
9110029,,Landsberger Allee/Karl-Lade-Str. (Berlin),,52.5291750,13.4626030,,,0,
9110030,,Oderbruchstr. (Berlin),,52.5304380,13.4614520,,,0,
9110031,,Caligariplatz (Berlin),,52.5520530,13.4312670,,,0,
9110032,,Stedingerweg (Berlin),,52.5392390,13.4525610,,,0,
9110500,,Humannplatz (Berlin),,52.5487570,13.4206620,,,0,
9110501,,Stargarder Str. (Berlin),,52.5465300,13.4182760,,,0,
9110502,,Raumerstr. (Berlin),,52.5440460,13.4155720,,,0,
9110503,,Milastr. (Berlin),,52.5452660,13.4127810,,,0,
9110505,,Schwedter Str. (Berlin),,52.5368390,13.4079560,,,0,
9110506,,Prenzlauer Allee/Metzer Str. (Berlin),,52.5310320,13.4193830,,,0,
9110507,,Knaackstr. (Berlin),,52.5332260,13.4207210,,,0,
9110508,,Marienburger Str. (Berlin),,52.5355380,13.4220930,,,0,
9110509,,Erich-Weinert-Str. (Berlin),,52.5477800,13.4286660,,,0,
9110510,,Fröbelstr. (Berlin),,52.5420430,13.4259140,,,0,
9110511,,Husemannstr. (Berlin),,52.5400360,13.4187150,,,0,
9110512,,Winsstr. (Berlin),,52.5376140,13.4288070,,,0,
9110514,,Ostseeplatz (Berlin),,52.5477980,13.4390450,,,0,
9110515,,Thomas-Mann-Str. (Berlin),,52.5433740,13.4414360,,,0,
9110516,,Rietzestr. (Berlin),,52.5435530,13.4355600,,,0,
9110518,,Schieritzstr. (Berlin),,52.5467250,13.4385530,,,0,
9110520,,Bötzowstr. (Berlin),,52.5288380,13.4306000,,,0,
9110521,,Hufelandstr. (Berlin),,52.5325180,13.4287890,,,0,
9110522,,Am Friedrichshain/Hufelandstr. (Berlin),,52.5296090,13.4374920,,,0,
9110523,,Paul-Heyse-Str. (Berlin),,52.5291980,13.4446400,,,0,
9110526,,Storkower Str./Gewerbegebiet (Berlin),,52.5353300,13.4517540,,,0,
9110527,,Storkower Str./Einkaufszentrum (Berlin),,52.5338760,13.4530330,,,0,
9110710,,Björnsonstr. (Berlin) [Endstelle],,52.5553250,13.4027380,,,0,
9110713,,Prenzlauer Allee/ Ostseestr. (Berlin),,52.5514810,13.4295230,,,0,
9110718,,Friedrich-Ludw.-Jahn-Sportpark (Berlin),,52.5414340,13.4062160,,,0,
9110728,,Michelangelostr. (Berlin) [Bushafen],,52.5418060,13.4521150,,,0,
9120001,,S+U Frankfurter Allee (Berlin),,52.5136130,13.4753000,,,0,
9120002,,Tunnelstr. (Berlin),,52.4903390,13.4807490,,,0,
9120003,,S Ostkreuz Bhf (Berlin),,52.5028510,13.4690930,,,0,
9120004,,S+U Warschauer Str. (Berlin),,52.5058890,13.4487210,,,0,
9120005,,S Ostbahnhof (Berlin),,52.5100010,13.4357470,,,0,
9120006,,U Strausberger Platz (Berlin),,52.5180250,13.4322080,,,0,
9120008,,U Frankfurter Tor (Berlin),,52.5157720,13.4540850,,,0,
9120009,,U Samariterstr. (Berlin),,52.5146620,13.4653470,,,0,
9120010,,S Ostbahnhof/Erich-Steinfurth-Str. (Berlin),,52.5105070,13.4370450,,,0,
9120011,,S Warschauer Str. (Berlin),,52.5077480,13.4509920,,,0,
9120013,,Boxhagener Str./Holteistr. (Berlin),,52.5086110,13.4662950,,,0,
9120014,,Grünberger Str./Warschauer Str. (Berlin),,52.5124050,13.4523970,,,0,
9120015,,Franz-Mehring-Platz (Berlin),,52.5130960,13.4391770,,,0,
9120016,,Landsberger Allee/Petersburger Str. (Berlin),,52.5260440,13.4467770,,,0,
9120017,,Virchowstr. (Berlin),,52.5251750,13.4421660,,,0,
9120019,,Platz der Vereinten Nationen (Berlin),,52.5232540,13.4330560,,,0,
9120020,,Helsingforser Platz (Berlin),,52.5081330,13.4489420,,,0,
9120021,,Revaler Str. (Berlin),,52.5092210,13.4510990,,,0,
9120022,,Singerstr. (Berlin),,52.5149010,13.4318850,,,0,
9120023,,Andreasstr./Lange Str. (Berlin),,52.5122260,13.4309140,,,0,
9120024,,Stralauer Platz (Berlin),,52.5108620,13.4315030,,,0,
9120025,,U Weberwiese (Berlin),,52.5168480,13.4432780,,,0,
9120026,,Oberbaumbrücke (Berlin),,52.5033870,13.4475640,,,0,
9120501,,Alt-Stralau (Berlin),,52.4926830,13.4766160,,,0,
9120502,,Friedrich-Junge-Str. (Berlin),,52.4936740,13.4720700,,,0,
9120510,,Weinstr. (Berlin),,52.5260650,13.4288000,,,0,
9120511,,Büschingstr. (Berlin),,52.5231270,13.4272170,,,0,
9120513,,Klinikum im Friedrichshain (Berlin),,52.5241470,13.4402020,,,0,
9120514,,Wühlischplatz (Berlin),,52.5077570,13.4648380,,,0,
9120515,,Straßmannstr. (Berlin),,52.5227410,13.4501450,,,0,
9120516,,Bersarinplatz (Berlin),,52.5193410,13.4525670,,,0,
9120517,,Niederbarnimstr. (Berlin),,52.5127600,13.4578600,,,0,
9120518,,Wismarplatz (Berlin),,52.5106030,13.4636800,,,0,
9120519,,Neue Bahnhofstr. (Berlin),,52.5064110,13.4697560,,,0,
9120520,,Glasbläserallee (Berlin),,52.4956950,13.4678230,,,0,
9120521,,Markgrafendamm (Berlin),,52.4996560,13.4658940,,,0,
9120522,,Persiusstr. (Berlin),,52.5008630,13.4619870,,,0,
9120523,,Modersohnstr. (Berlin),,52.5018570,13.4579400,,,0,
9120524,,Stralauer Allee (Berlin),,52.5016410,13.4506430,,,0,
9120525,,Friedrichsberger Str. (Berlin),,52.5214230,13.4351180,,,0,
9120526,,Kopernikusstr./Warschauer Str. (Berlin),,52.5105680,13.4526610,,,0,
9120527,,Libauer Str. (Berlin),,52.5101540,13.4549300,,,0,
9120528,,Simplonstr. (Berlin),,52.5096960,13.4570220,,,0,
9120529,,Wühlischstr./Gärtnerstr. (Berlin),,52.5088900,13.4604560,,,0,
9120530,,Boxhagener Platz (Berlin),,52.5110410,13.4609700,,,0,
9120531,,Simon-Dach-Str. (Berlin),,52.5117490,13.4567660,,,0,
9120532,,Krachtstr. (Berlin),,52.4969440,13.4700000,,,0,
9120534,,Wedekindstr. (Berlin),,52.5127120,13.4456760,,,0,
9120535,,Pillauer Str. (Berlin),,52.5103620,13.4474840,,,0,
9120536,,Bootsbauerstr. (Berlin),,52.4958790,13.4732480,,,0,
9120538,,Proskauer Str. (Berlin),,52.5198580,13.4631190,,,0,
9120539,,Samariterstr. (Berlin),,52.5201610,13.4669450,,,0,
9120540,,Scharnweberstr. (Berlin),,52.5123380,13.4701750,,,0,
9120541,,Osthafen (Berlin),,52.5006810,13.4556190,,,0,
9120542,,Forckenbeckplatz (Berlin),,52.5204050,13.4595710,,,0,
9120544,,East Side Gallery (Berlin),,52.5059610,13.4383840,,,0,
9120545,,Tamara-Danz-Str. (Berlin),,52.5034960,13.4445340,,,0,
9120716,,Landsberger Allee/ Petersburger Str. (Berlin),,52.5268100,13.4473320,,,0,
9120816,,Bersarinplatz (Berlin) [Weidenweg],,52.5189130,13.4544540,,,0,
9130001,,S Pankow-Heinersdorf (Berlin),,52.5776030,13.4290900,,,0,
9130002,,S+U Pankow (Berlin),,52.5672810,13.4122790,,,0,
9130003,,S Wollankstr. (Berlin),,52.5649740,13.3931500,,,0,
9130005,,Hadlichstr. (Berlin),,52.5688560,13.4143650,,,0,
9130011,,U Vinetastr. (Berlin),,52.5595170,13.4137700,,,0,
9130013,,Pankow Kirche (Berlin),,52.5707670,13.4101340,,,0,
9130014,,Prenzlauer Promenade/Granitzstr. (Berlin),,52.5719930,13.4278450,,,0,
9130015,,Prenzlauer Prom./Kissingenstr. (Berlin),,52.5679030,13.4271520,,,0,
9130016,,Galenusstr. (Berlin),,52.5820490,13.4285850,,,0,
9130017,,Pankower Str. (Berlin),,52.5850110,13.4289470,,,0,
9130018,,Mühlenstr. (Berlin),,52.5653540,13.4065830,,,0,
9130019,,Wollankstr./Florastr. (Berlin),,52.5659830,13.3959550,,,0,
9130500,,S+U Pankow/Granitzstr. (Berlin),,52.5662830,13.4130580,,,0,
9130501,,Rathaus Pankow (Berlin),,52.5693810,13.4034530,,,0,
9130502,,Stiftsweg (Berlin),,52.5724060,13.4151140,,,0,
9130503,,Klaustaler Str. (Berlin),,52.5734450,13.4221690,,,0,
9130504,,Wilhelm-Kuhr-Str. (Berlin),,52.5685790,13.3999020,,,0,
9130505,,Neumannstr./Kissingenstr. (Berlin),,52.5669020,13.4199070,,,0,
9130507,,Retzbacher Weg (Berlin),,52.5710330,13.4232120,,,0,
9130508,,Granitzstr./Neumannstr. (Berlin),,52.5692140,13.4190080,,,0,
9130509,,Kissingenplatz (Berlin),,52.5674080,13.4226810,,,0,
9130510,,Arnold-Zweig-Str. (Berlin),,52.5628350,13.4218400,,,0,
9130511,,E.-Brändström-Str./Neumannstr. (Berlin),,52.5599440,13.4223360,,,0,
9130512,,Masurenstr. (Berlin),,52.5635680,13.4131630,,,0,
9130513,,Dolomitenstr. (Berlin),,52.5612310,13.4056260,,,0,
9130514,,Brehmestr. (Berlin),,52.5626660,13.4028400,,,0,
9130515,,Görschstr. (Berlin),,52.5656370,13.4016520,,,0,
9130516,,Gaillardstr. (Berlin),,52.5658430,13.3971300,,,0,
9130517,,Binzstr. (Berlin),,52.5643350,13.4271390,,,0,
9130518,,Treskowstr. (Berlin),,52.5618620,13.4280030,,,0,
9130519,,Lohmestr. (Berlin),,52.5664970,13.4162070,,,0,
9130520,,Mendelstr. (Berlin),,52.5750610,13.4193450,,,0,
9130521,,Maximilianstr. (Berlin),,52.5611500,13.4124210,,,0,
9130522,,Würtzstr. (Berlin),,52.5761880,13.4249870,,,0,
9130523,,Pradelstr. (Berlin),,52.5654000,13.3950810,,,0,
9130713,,Pankow  Kirche (Berlin),,52.5712520,13.4109170,,,0,
9131001,,Schillerstr. (Berlin),,52.5921390,13.4108800,,,0,
9131002,,Grumbkowstr. (Berlin),,52.5910080,13.4197420,,,0,
9131003,,Karower Str. (Berlin),,52.5825080,13.4226250,,,0,
9131004,,Bürgerpark Pankow (Berlin),,52.5711970,13.3981410,,,0,
9131005,,Pastor-Niemöller-Platz (Berlin),,52.5796280,13.3973030,,,0,
9131006,,Nordend (Berlin),,52.5901720,13.4024050,,,0,
9131008,,Ossietzkyplatz (Berlin),,52.5816640,13.4059550,,,0,
9131500,,Eisenblätterstr. (Berlin),,52.5828950,13.3745970,,,0,
9131501,,Ehrenmal Schönholz (Berlin),,52.5796430,13.3760590,,,0,
9131502,,Frühlingstr. (Berlin),,52.5747650,13.3804790,,,0,
9131503,,Hermann-Hesse-Str. (Berlin),,52.5729700,13.3849070,,,0,
9131504,,Heinrich-Mann-Platz (Berlin),,52.5725550,13.3942020,,,0,
9131505,,Tschaikowskistr. (Berlin),,52.5760800,13.3986070,,,0,
9131508,,Friedrich-Engels-Str./Eichenstr. (Berlin),,52.5850470,13.3903930,,,0,
9131509,,Beatrice-Zweig-Str. (Berlin),,52.5737790,13.3910100,,,0,
9131510,,Kuckhoffstr. (Berlin),,52.5836480,13.4031410,,,0,
9131511,,Buchholzer Str./Wackenbergstr. (Berlin),,52.5835810,13.4080520,,,0,
9131512,,Idastr. (Berlin),,52.5823660,13.4119380,,,0,
9131513,,Lindenberger Str. (Berlin),,52.5838700,13.4169440,,,0,
9131514,,Rolandstr. (Berlin),,52.5821030,13.4189230,,,0,
9131515,,Wackenbergstr. (Berlin),,52.5887160,13.4212910,,,0,
9131516,,Herthaplatz (Berlin),,52.5850090,13.4088360,,,0,
9131517,,Charlottenstr./Beuthstr. (Berlin),,52.5881940,13.4130400,,,0,
9131518,,Blankenburger Str./Grumbkowstr. (Berlin),,52.5857950,13.4234980,,,0,
9131519,,Waldemarstr. (Berlin),,52.5908190,13.4062480,,,0,
9131520,,Heinrich-Mann-Str. (Berlin),,52.5745700,13.3902240,,,0,
9131521,,Dietzgenstr./Mittelstr. (Berlin),,52.5911990,13.4022460,,,0,
9131522,,Homeyerstr. (Berlin),,52.5757270,13.3927540,,,0,
9131523,,Buchholzer Str. 55-61 (Berlin),,52.5903150,13.4160890,,,0,
9131524,,Grumbkowstr./Pankower Str. (Berlin),,52.5838230,13.4253230,,,0,
9131526,,Heinrich-Böll-Str. (Berlin),,52.5877710,13.4017830,,,0,
9131527,,Hermann-Hesse-Str./Waldstr. (Berlin),,52.5805130,13.4014630,,,0,
9131528,,Grabbeallee/Pastor-Niemöller-Platz (Berlin),,52.5789330,13.3983140,,,0,
9131529,,Am Iderfenngraben (Berlin),,52.5826010,13.3920860,,,0,
9132010,,Hauptstr./Friedrich-Engels-Str. (Berlin),,52.5971840,13.3754880,,,0,
9132011,,Fontanestr./Schillerstr. (Berlin),,52.5885100,13.3599880,,,0,
9132012,,Hertzstr./Fontanestr. (Berlin),,52.5855040,13.3596430,,,0,
9132013,,Rosenthal Kirche (Berlin),,52.6005450,13.3785600,,,0,
9132014,,Rosenthal Nord (Berlin),,52.5996370,13.3716380,,,0,
9132025,,Uhlandstr./Wilhelmsruher Damm (Berlin),,52.5974230,13.3695320,,,0,
9132500,,Wiesenwinkel (Berlin),,52.5944320,13.3809800,,,0,
9132501,,Angerweg (Berlin),,52.5917560,13.3839360,,,0,
9132502,,Nordendstr. (Berlin),,52.5885680,13.3883060,,,0,
9132503,,Lessingstr./Fontanestr. (Berlin),,52.5899030,13.3615650,,,0,
9132504,,Hielscherstr. (Berlin),,52.5896070,13.3692890,,,0,
9132505,,Buchhorster Str. (Berlin),,52.5912890,13.3715550,,,0,
9132506,,Hauptstr./Schillerstr. (Berlin),,52.5877540,13.3694820,,,0,
9132508,,Edelweißstr. (Berlin),,52.5861500,13.3682360,,,0,
9132509,,Hertzstr./Hauptstr. (Berlin),,52.5848620,13.3661600,,,0,
9132510,,Möllersfelder Str. (Berlin),,52.5932790,13.3727830,,,0,
9132511,,Botanischer Volkspark (Berlin),,52.6048750,13.4009120,,,0,
9132512,,Nordend-Arena (Berlin),,52.6016160,13.4028740,,,0,
9132513,,Kleingartenanlage Daheim (Berlin),,52.5989110,13.4029060,,,0,
9132514,,Zionsfriedhof (Berlin),,52.5951250,13.4030800,,,0,
9132515,,Lessingstr./Uhlandstr. (Berlin),,52.5901100,13.3654380,,,0,
9132523,,Schönhauser Str./Kirchstr. (Berlin),,52.5932800,13.3972360,,,0,
9132524,,Am Rollberg (Berlin),,52.5950850,13.3927780,,,0,
9132525,,Bergrutenpfad (Berlin),,52.5967880,13.3870610,,,0,
9132526,,Kräuterweg (Berlin),,52.5985280,13.3827030,,,0,
9132707,,Schönholzer Weg (Berlin) [Schillerstr.],,52.5869540,13.3733370,,,0,
9132708,,Schönholzer Weg (Berlin) [Edelweißstr.],,52.5854270,13.3732900,,,0,
9133011,,Blankenfelde Kirche (Berlin),,52.6181150,13.3908510,,,0,
9133013,,Möllersfelder Weg (Berlin),,52.6219740,13.3989480,,,0,
9133014,,Arkenberge (Berlin),,52.6395700,13.4005430,,,0,
9133500,,Lübarser Weg (Berlin),,52.6299820,13.3828080,,,0,
9133501,,Hauptstr./Berliner Str. (Berlin),,52.6191530,13.3942800,,,0,
9133502,,Gurkensteig (Berlin),,52.6335110,13.3807630,,,0,
9133503,,Revierförsterei Blankenfelde (Berlin),,52.6103950,13.3976930,,,0,
9133504,,Am Wäldchen (Berlin),,52.6263640,13.3847620,,,0,
9134001,,Kleingartenanlage Lindenhof (Berlin),,52.6257150,13.4325620,,,0,
9134002,,Hans-Schumacher-Str.  (Berlin),,52.6159310,13.4315340,,,0,
9134003,,Schönerlinder Str. (Berlin),,52.6326190,13.4383420,,,0,
9134009,,Gewerbegebiet Pankow-Nord (Berlin),,52.6355240,13.4388950,,,0,
9134011,,Französisch Buchholz Kirche (Berlin),,52.6067760,13.4335380,,,0,
9134012,,Aubertstr. (Berlin),,52.6083840,13.4156390,,,0,
9134500,,Blankenfelder Str. (Berlin),,52.6017320,13.4315140,,,0,
9134501,,Rosenthaler Str. (Berlin),,52.5958620,13.4330930,,,0,
9134502,,Marienstr./Pasewalker Str. (Berlin),,52.5925470,13.4314950,,,0,
9134503,,Pasewalker Str./Blankenburger Weg (Berlin),,52.5895400,13.4304520,,,0,
9134506,,Blankenburger Weg (Berlin),,52.5924950,13.4365250,,,0,
9134509,,Hugenottenplatz (Berlin),,52.6062280,13.4200720,,,0,
9134510,,Kalvinistenweg (Berlin),,52.6031950,13.4264250,,,0,
9134511,,Guyotstr. (Berlin),,52.6054640,13.4170800,,,0,
9134512,,Navarraplatz (Berlin),,52.6084120,13.4297980,,,0,
9134513,,Arnouxstr. (Berlin),,52.6073330,13.4246400,,,0,
9134514,,Triftstr. (Berlin),,52.6127070,13.4313850,,,0,
9134515,,Vienweg (Berlin),,52.6098240,13.4304490,,,0,
9134528,,Hans-Jürgen-Str. (Berlin),,52.5885730,13.4294470,,,0,
9135001,,S Buch (Berlin),,52.6366140,13.4924520,,,0,
9135003,,Klinikum Buch (Berlin),,52.6319730,13.5125000,,,0,
9135010,,Schönerlinder Str./Lindenhof (Berlin),,52.6388480,13.4441310,,,0,
9135011,,Lindenberger Weg/Stadtgrenze (Berlin),,52.6271100,13.5076650,,,0,
9135012,,S Buch/Röbellweg (Berlin),,52.6380770,13.4918810,,,0,
9135013,,Zepernicker Str. (Berlin),,52.6416940,13.5163220,,,0,
9135016,,Schönerlinder Chaussee (Berlin),,52.6465780,13.4529260,,,0,
9135018,,Campus Buch (Berlin),,52.6251850,13.5021640,,,0,
9135501,,Pölnitzweg/Hobrechtsfelder Chaussee (Berlin),,52.6485100,13.4854980,,,0,
9135502,,Röbellweg (Berlin),,52.6410430,13.4960890,,,0,
9135503,,Sudauer Str. (Berlin),,52.6399170,13.5097310,,,0,
9135504,,Pölnitzweg (Berlin),,52.6454860,13.4901240,,,0,
9135505,,Lindenberger Weg (Berlin),,52.6304990,13.5040750,,,0,
9135506,,Alt-Buch/Wiltbergstr. (Berlin),,52.6337900,13.4982940,,,0,
9135507,,Am Stener Berg (Berlin),,52.6377740,13.5065250,,,0,
9135508,,Theodor-Brugsch-Str. (Berlin),,52.6307030,13.4993250,,,0,
9135509,,Karower Chaussee (Berlin),,52.6256480,13.4953720,,,0,
9135510,,Schwanebecker Chaussee (Berlin),,52.6354020,13.5079060,,,0,
9135511,,Alt-Buch (Berlin),,52.6367870,13.5029310,,,0,
9135512,,Alt-Buch/Karower Str. (Berlin),,52.6354180,13.4996200,,,0,
9135513,,Lindenberger Weg Süd (Berlin),,52.6283050,13.5070120,,,0,
9135516,,Wiltbergstr./Hobrechtsfelder Chaussee (Berlin),,52.6435460,13.4800110,,,0,
9135517,,Wiltbergstr. (Berlin),,52.6410480,13.4863980,,,0,
9135701,,S Buch (Berlin) [Am Sandhaus],,52.6382210,13.4896700,,,0,
9140001,,Piesporter Str. (Berlin),,52.5604820,13.4767110,,,0,
9140002,,Pasedagplatz (Berlin),,52.5597720,13.4601120,,,0,
9140003,,Große Seestr. (Berlin),,52.5572080,13.4595840,,,0,
9140005,,Albertinenstr. (Berlin),,52.5497880,13.4577750,,,0,
9140006,,Berliner Allee/Indira-Gandhi-Str. (Berlin),,52.5518860,13.4654820,,,0,
9140007,,Buschallee/Hansastr. (Berlin),,52.5531710,13.4806970,,,0,
9140008,,Rennbahnstr./Gustav-Adolf-Str. (Berlin),,52.5622610,13.4542660,,,0,
9140009,,Hamburger Platz (Berlin),,52.5555460,13.4389300,,,0,
9140010,,Roelckestr./Langhansstr. (Berlin),,52.5515140,13.4431030,,,0,
9140011,,Antonplatz (Berlin),,52.5482830,13.4508550,,,0,
9140012,,Falkenberger Str./Berliner Allee (Berlin),,52.5547070,13.4677430,,,0,
9140013,,Berliner Allee/Rennbahnstr. (Berlin),,52.5575490,13.4653900,,,0,
9140014,,Giersstr. (Berlin),,52.5545780,13.4824250,,,0,
9140016,,Roelckestr. (Berlin),,52.5539730,13.4448790,,,0,
9140017,,Gustav-Adolf-Str./Langhansstr. (Berlin),,52.5535930,13.4347520,,,0,
9140018,,Rathaus Weißensee (Berlin),,52.5592860,13.4666720,,,0,
9140019,,Mirbachplatz (Berlin),,52.5530770,13.4483590,,,0,
9140020,,Darßer Str./Piesporter Str. (Berlin),,52.5668160,13.4783100,,,0,
9140501,,Gustav-Adolf-Str./Amalienstr. (Berlin),,52.5597920,13.4489050,,,0,
9140502,,Wigandstaler Str. (Berlin),,52.5572930,13.4431310,,,0,
9140503,,Heinersdorfer Str./Am Steinberg (Berlin),,52.5570970,13.4333770,,,0,
9140505,,Friesickestr. (Berlin),,52.5518830,13.4401370,,,0,
9140506,,Behaimstr. (Berlin),,52.5499480,13.4462800,,,0,
9140507,,Woelckpromenade (Berlin),,52.5517590,13.4531810,,,0,
9140508,,Parkstr./Amalienstr. (Berlin),,52.5548360,13.4580900,,,0,
9140509,,Rennbahnstr./Parkstr. (Berlin),,52.5586990,13.4618160,,,0,
9140512,,Roelckestr./Nüßlerstr. (Berlin),,52.5649420,13.4627610,,,0,
9140513,,Nüßlerstr./Feldtmannstr. (Berlin),,52.5646790,13.4702440,,,0,
9140514,,Gehringstr. (Berlin),,52.5616670,13.4681530,,,0,
9140515,,Neumagener Str. (Berlin),,52.5598350,13.4724120,,,0,
9140516,,Wittlicher Str. (Berlin),,52.5557910,13.4781450,,,0,
9140517,,Stadion Buschallee/Hansastr. (Berlin),,52.5569060,13.4859840,,,0,
9140518,,Sulzfelder Str. (Berlin),,52.5533620,13.4740240,,,0,
9140519,,Buschallee (Berlin),,52.5536720,13.4693460,,,0,
9140520,,Giersstr./Falkenberger Str. (Berlin),,52.5561010,13.4820780,,,0,
9140706,,Berliner Allee/Indira-Gandhi-Str. (Berlin) [Bus Wegenerstr.],,52.5526260,13.4667450,,,0,
9140713,,Berliner Allee/Rennbahnstr. (Berlin) [Bernkast.Str.],,52.5569170,13.4692620,,,0,
9141001,,Heinersdorf (Berlin),,52.5725640,13.4370680,,,0,
9141002,,Heinersdorf Kirche (Berlin),,52.5681650,13.4403900,,,0,
9141500,,Ingeborgstr. (Berlin),,52.5772090,13.4445820,,,0,
9141501,,Mimestr. (Berlin),,52.5746230,13.4443930,,,0,
9141502,,Tino-Schwierzina-Str. (Berlin),,52.5622650,13.4348440,,,0,
9141503,,Rothenbachstr. (Berlin),,52.5701740,13.4377130,,,0,
9141504,,Am Wasserturm (Berlin),,52.5651180,13.4359690,,,0,
9141506,,Am Steinberg (Berlin),,52.5583830,13.4333010,,,0,
9141507,,Prenzlauer Promenade/Am Steinberg (Berlin),,52.5566620,13.4299130,,,0,
9141508,,Straße 16 (Berlin),,52.5650680,13.4452150,,,0,
9142001,,S Blankenburg (Berlin),,52.5910690,13.4429720,,,0,
9142500,,Treseburger Str. (Berlin),,52.5965730,13.4667960,,,0,
9142501,,Karower Damm/Georgenstr. (Berlin),,52.5938600,13.4615700,,,0,
9142502,,Alt-Blankenburg (Berlin),,52.5930450,13.4533080,,,0,
9142503,,Heinersdorfer Str. (Berlin),,52.5904910,13.4534300,,,0,
9142504,,Krugstege (Berlin),,52.5913070,13.4528670,,,0,
9142506,,Fafnerstr. (Berlin),,52.5814790,13.4451650,,,0,
9142507,,Waldammerweg (Berlin),,52.5907520,13.4467980,,,0,
9142508,,Purpurkardinalweg (Berlin),,52.5869180,13.4516890,,,0,
9142509,,Papstfinkweg (Berlin),,52.5852360,13.4495670,,,0,
9142530,,Blankenburger Pflasterweg (Berlin),,52.5882520,13.4557170,,,0,
9142531,,Mörderberg (Berlin),,52.5847810,13.4610020,,,0,
9143001,,S Karow Bhf (Berlin),,52.6157550,13.4700810,,,0,
9143500,,Straße 74 (Berlin),,52.6138430,13.4843830,,,0,
9143501,,Alt-Karow/Bahnhofstr. (Berlin),,52.6096080,13.4801800,,,0,
9143502,,Beuthener Str. (Berlin),,52.6053080,13.4761820,,,0,
9143503,,Straße 45 (Berlin),,52.6017300,13.4712350,,,0,
9143504,,Straße 42 (Berlin),,52.6074130,13.4789390,,,0,
9143507,,Hagenstr. (Berlin),,52.6115800,13.4755360,,,0,
9143508,,Kerkowstr. (Berlin),,52.6133640,13.4715660,,,0,
9143509,,Alt-Karow (Berlin),,52.6108470,13.4824210,,,0,
9143510,,Chronisteneck (Berlin),,52.6207800,13.4858290,,,0,
9143511,,Ballonplatz (Berlin),,52.6220520,13.4840700,,,0,
9143512,,Röländer Str. (Berlin),,52.6215630,13.4800220,,,0,
9143513,,Bucher Chaussee/Achillesstr. (Berlin),,52.6180700,13.4877150,,,0,
9143514,,Lossebergplatz (Berlin),,52.6169190,13.4905850,,,0,
9143515,,Forkenzeile (Berlin),,52.6157090,13.4931870,,,0,
9143516,,Hofzeichendamm (Berlin),,52.6123590,13.4944610,,,0,
9143518,,Möserstr. (Berlin),,52.6195320,13.4757300,,,0,
9144001,,Schwarzelfenweg (Berlin),,52.5674190,13.4652920,,,0,
9144500,,Umspannwerk Malchow (Berlin),,52.5915160,13.4924230,,,0,
9144501,,Darßer Str./Roelckestr. (Berlin),,52.5665980,13.4640990,,,0,
9144502,,Am Luchgraben (Berlin),,52.5963240,13.5044970,,,0,
9145500,,Nerthusweg (Berlin),,52.6213330,13.4905280,,,0,
9150002,,Hansastr./Malchower Weg (Berlin),,52.5610520,13.5006790,,,0,
9150004,,Wassergrundstr. (Berlin),,52.5445770,13.5254430,,,0,
9150005,,Rhinstr./Plauener Str. (Berlin),,52.5395530,13.5141990,,,0,
9150006,,Plauener Str./Marzahner Str. (Berlin),,52.5463450,13.5178820,,,0,
9150007,,Oberseestr. (Berlin),,52.5467570,13.4976110,,,0,
9150008,,Rhinstr./Gärtnerstr. (Berlin),,52.5463950,13.5105280,,,0,
9150010,,Degnerstr./Suermondtstr. (Berlin),,52.5497560,13.4985240,,,0,
9150011,,Hohenschönhauser Str./Weißenseer Weg (Berlin),,52.5358510,13.4728620,,,0,
9150013,,Marzahner Str. (Berlin),,52.5463860,13.5210390,,,0,
9150015,,Degnerstr. (Berlin),,52.5462890,13.4954580,,,0,
9150020,,Hauptstr./Rhinstr. (Berlin),,52.5488680,13.5047600,,,0,
9150021,,Perler Str. (Berlin),,52.5660130,13.4850670,,,0,
9150022,,Darßer Str./Ribnitzer Str. (Berlin),,52.5650090,13.4934400,,,0,
9150050,,Bahnhofstr. (Berlin),,52.5447620,13.4990170,,,0,
9150051,,Konrad-Wolf-Str. (Berlin),,52.5482050,13.5003290,,,0,
9150052,,Königswalder Str. (Berlin),,52.5581430,13.5019220,,,0,
9150053,,Gembitzer Str. (Berlin),,52.5539120,13.5031780,,,0,
9150500,,Anna-Ebermann-Str. (Berlin),,52.5549750,13.5121200,,,0,
9150501,,Feldtmannstr. (Berlin),,52.5598260,13.4953280,,,0,
9150502,,Gottfriedstr. (Berlin),,52.5537360,13.5211310,,,0,
9150503,,Bennostr. (Berlin),,52.5521530,13.5170800,,,0,
9150504,,Gehrenseestr. (Berlin),,52.5500150,13.5085590,,,0,
9150505,,Leuenberger Str. (Berlin),,52.5465140,13.5039860,,,0,
9150506,,Bürknersfelder Str. West (Berlin),,52.5418920,13.5231680,,,0,
9150507,,Bürknersfelder Str. Ost (Berlin),,52.5418420,13.5269990,,,0,
9150509,,Altenhofer Str. (Berlin),,52.5349330,13.4801710,,,0,
9150510,,Sandinostr. (Berlin),,52.5384760,13.4807030,,,0,
9150511,,Simon-Bolivar-Str. (Berlin),,52.5399910,13.4846310,,,0,
9150512,,Werneuchener Str. (Berlin),,52.5424220,13.4893120,,,0,
9150513,,Freienwalder Str. (Berlin),,52.5443430,13.4930030,,,0,
9150514,,Am Faulen See (Berlin),,52.5505660,13.4948660,,,0,
9150515,,Stadion Buschallee/Suermondtstr. (Berlin),,52.5522860,13.4860490,,,0,
9150516,,Grenzgrabenstr. (Berlin),,52.5445840,13.5207110,,,0,
9150518,,Betriebshof Indira-Gandhi-Str. (Berlin),,52.5443520,13.4686360,,,0,
9150519,,Sportforum (Berlin),,52.5384120,13.4714450,,,0,
9150520,,Indira-Gandhi-Str./Hansastr. (Berlin),,52.5468000,13.4690860,,,0,
9150521,,Hansastr. (Berlin),,52.5493670,13.4744060,,,0,
9150522,,Gounodstr. (Berlin),,52.5483690,13.4671780,,,0,
9150523,,Liebenwalder Str. (Berlin),,52.5386820,13.4979550,,,0,
9150530,,Große-Leege-Str./Freienwalder Str. (Berlin),,52.5427000,13.4964260,,,0,
9150531,,Werneuchener Str./Große-Leege-Str. (Berlin),,52.5411940,13.4939720,,,0,
9150532,,Liebenwalder Str./Landsberger Allee (Berlin),,52.5351920,13.4995760,,,0,
9150711,,Hohenschönhauser Str./Weißenseer  Weg (Berlin),,52.5355870,13.4738260,,,0,
9151001,,S Wartenberg (Berlin),,52.5732660,13.5042380,,,0,
9151002,,Neubrandenburger Str. (Berlin),,52.5696190,13.5097040,,,0,
9151003,,Zingster Str. (Berlin),,52.5723560,13.4951650,,,0,
9151004,,Zingster Str./Ribnitzer Str. (Berlin),,52.5702790,13.4973800,,,0,
9151006,,Prerower Platz (Berlin),,52.5632170,13.5050590,,,0,
9151007,,Malchow/Dorfstr. (Berlin),,52.5795860,13.4827380,,,0,
9151008,,Grevesmühlener Str. (Berlin),,52.5678750,13.5140100,,,0,
9151010,,Barther Str. (Berlin),,52.5634350,13.4984740,,,0,
9151501,,Ahrenshooper Str. (Berlin),,52.5662140,13.5018880,,,0,
9151502,,Ortnitstr. (Berlin),,52.5746210,13.4830420,,,0,
9151510,,Malchower Aue (Berlin),,52.5823040,13.4831100,,,0,
9152001,,S Hohenschönhausen Bhf (Berlin),,52.5665490,13.5136980,,,0,
9152002,,S Gehrenseestr. (Berlin),,52.5557360,13.5256530,,,0,
9152003,,Welsestr. (Berlin),,52.5691740,13.5255440,,,0,
9152004,,Straße 4 (Berlin),,52.5833590,13.5294750,,,0,
9152005,,Dorfstr./Lindenberger Str. (Berlin),,52.5748860,13.5181460,,,0,
9152006,,Falkenberger Ch./Prendener Str. (Berlin),,52.5686340,13.5206730,,,0,
9152007,,Falkenberg (Berlin),,52.5702090,13.5268190,,,0,
9152500,,Zu den Krugwiesen (Berlin),,52.5594570,13.5249120,,,0,
9152501,,Seehausener Str. (Berlin),,52.5619450,13.5243500,,,0,
9152502,,Vincent-van-Gogh-Str. (Berlin),,52.5648350,13.5246710,,,0,
9152503,,Straße 3 (Berlin),,52.5816370,13.5270990,,,0,
9152504,,Siedlung Wartenberg (Berlin),,52.5845190,13.5321570,,,0,
9152505,,Straße 6 (Berlin),,52.5811910,13.5295910,,,0,
9152506,,Schweriner Ring (Berlin),,52.5754080,13.5103750,,,0,
9152507,,Hagenower Ring (Berlin),,52.5755810,13.5052320,,,0,
9152508,,Rüdickenstr. (Berlin),,52.5598490,13.5105180,,,0,
9152509,,Arnimstr. (Berlin),,52.5586170,13.5148110,,,0,
9152510,,Straße 8 (Berlin),,52.5867420,13.5368230,,,0,
9152511,,Lindenberger Str./Birkholzer Weg (Berlin),,52.5785950,13.5197490,,,0,
9153500,,Am Gehrensee (Berlin),,52.5723240,13.5644190,,,0,
9153501,,Radieschenpfad (Berlin),,52.5702270,13.5557600,,,0,
9153502,,Dessauer Str. (Berlin),,52.5688570,13.5499000,,,0,
9153503,,Tierheim Berlin (Berlin),,52.5684230,13.5425250,,,0,
9153504,,Falkenberg/Dorfstr. (Berlin),,52.5702050,13.5368350,,,0,
9160001,,S Rummelsburg (Berlin),,52.5012130,13.4786990,,,0,
9160002,,S Betriebsbahnhof Rummelsburg (Berlin),,52.4939570,13.4975090,,,0,
9160003,,S Nöldnerplatz (Berlin),,52.5034440,13.4842970,,,0,
9160004,,S+U Lichtenberg Bhf (Berlin),,52.5107540,13.4982280,,,0,
9160005,,U Magdalenenstr. (Berlin),,52.5122140,13.4894390,,,0,
9160006,,Heizkraftwerk (Berlin),,52.4879260,13.4961260,,,0,
9160007,,Köpenicker Chaussee/Blockdammweg (Berlin),,52.4834430,13.5023630,,,0,
9160010,,Roederplatz (Berlin),,52.5271570,13.4796300,,,0,
9160012,,Herzbergstr./Siegfriedstr. (Berlin),,52.5262270,13.4999630,,,0,
9160013,,Rosenfelder Str. (Berlin),,52.5111400,13.5053850,,,0,
9160014,,Möllendorffstr./Storkower Str. (Berlin),,52.5231710,13.4792750,,,0,
9160016,,Freiaplatz (Berlin),,52.5156830,13.4986160,,,0,
9160017,,Loeperplatz (Berlin),,52.5200710,13.4799220,,,0,
9160018,,Landsberger Allee/Weißenseer Weg (Berlin),,52.5320550,13.4767140,,,0,
9160019,,Lückstr./Weitlingstr. (Berlin),,52.5017020,13.4934430,,,0,
9160020,,S+U Lichtenberg Bhf/Siegfriedstr. (Berlin),,52.5123150,13.4977500,,,0,
9160021,,S+U Lichtenberg Bhf/Gudrunstr. (Berlin),,52.5123670,13.5000650,,,0,
9160502,,Gustav-Holzmann-Str. (Berlin),,52.4931270,13.4906490,,,0,
9160504,,Franz-Jacob-Str. (Berlin),,52.5246940,13.4630580,,,0,
9160505,,Reinhardsbrunner Str. (Berlin),,52.5311680,13.5000720,,,0,
9160507,,Max-Brunnow-Str. (Berlin),,52.5268400,13.4587980,,,0,
9160508,,Judith-Auer-Str. (Berlin),,52.5341250,13.4678670,,,0,
9160509,,Bernhard-Bästlein-Str. (Berlin),,52.5267640,13.4822980,,,0,
9160510,,Anton-Saefkow-Platz (Berlin),,52.5281810,13.4688770,,,0,
9160511,,Storkower Str./Paul-Junius-Str. (Berlin),,52.5230040,13.4724470,,,0,
9160513,,Zechliner Str. (Berlin),,52.5339470,13.4871530,,,0,
9160514,,Genslerstr. (Berlin),,52.5344200,13.4959380,,,0,
9160515,,Arendsweg (Berlin),,52.5348820,13.5055640,,,0,
9160516,,Schalkauer Str. (Berlin),,52.5351440,13.5096700,,,0,
9160517,,Irenenstr. (Berlin),,52.5093000,13.4995040,,,0,
9160518,,Herzbergstr./Industriegebiet (Berlin),,52.5265790,13.4898370,,,0,
9160519,,Wönnichstr. (Berlin),,52.5002660,13.4961040,,,0,
9160520,,Ev. Krankenhaus KEH (Berlin),,52.5254780,13.5086460,,,0,
9160521,,Siegfriedstr./Josef-Orlopp-Str. (Berlin),,52.5228720,13.4994360,,,0,
9160522,,Betriebshof Lichtenberg (Berlin),,52.5199880,13.4993820,,,0,
9160523,,Gotlindestr. (Berlin),,52.5181180,13.4993920,,,0,
9160524,,Kriemhildstr. (Berlin),,52.5140610,13.5053520,,,0,
9160525,,Guntherstr. (Berlin),,52.5134890,13.5022980,,,0,
9160526,,Fanningerstr. (Berlin),,52.5143940,13.4982780,,,0,
9160527,,Rüdigerstr. (Berlin),,52.5159520,13.4958260,,,0,
9160528,,Schottstr. (Berlin),,52.5155860,13.4913800,,,0,
9160529,,Josef-Orlopp-Str./Gewerbegebiet(Berlin),,52.5230950,13.4917520,,,0,
9160530,,Atzpodienstr./U Magdalenenstr. (Berlin),,52.5120580,13.4925120,,,0,
9160532,,Sophienstr. (Berlin),,52.5064840,13.4961820,,,0,
9160534,,S Nöldnerplatz/Schlichtallee (Berlin),,52.5022740,13.4851410,,,0,
9160535,,Marktstr. (Berlin),,52.5027990,13.4747760,,,0,
9160536,,Kosanke-Siedlung (Berlin),,52.4967110,13.4857930,,,0,
9160537,,Einbecker Str./Rosenfelder Str. (Berlin),,52.5097890,13.5034980,,,0,
9160538,,Scheffelstr./Paul-Junius-Str. (Berlin),,52.5204980,13.4738070,,,0,
9160539,,Rüdigerstr./Kriemhildstr. (Berlin),,52.5149380,13.5063690,,,0,
9160540,,Zentralfriedhof (Berlin),,52.5146680,13.5085260,,,0,
9160541,,Josef-Orlopp-Str./Vulkanstr. (Berlin),,52.5231920,13.4855080,,,0,
9160544,,Rathaus Lichtenberg (Berlin),,52.5159110,13.4790750,,,0,
9160545,,Lichtenberger Brücke Nord (Berlin),,52.5113720,13.4991320,,,0,
9160547,,Nöldnerstr./Stadthausstr. (Berlin),,52.5019700,13.4814190,,,0,
9160548,,Lichtenberger Brücke Süd (Berlin),,52.5108850,13.5020620,,,0,
9160549,,Gernotstr. (Berlin),,52.5132160,13.5025830,,,0,
9160701,,S+U Lichtenberg (Berlin) [U5],,52.5114840,13.4973690,,,0,
9160702,,S+U Lichtenberg (Berlin) [Bus],,52.5103880,13.4994670,,,0,
9160704,,S+U Lichtenberg (Berlin) [N50],,52.5104420,13.5016050,,,0,
9160710,,Roederplatz. (Berlin),,52.5265990,13.4789180,,,0,
9160712,,Herzbergstr./ Siegfriedstr (Berlin),,52.5263450,13.4991120,,,0,
9160733,,Münsterlandplatz (Berlin) [Ri.S+U Lichtenberg],,52.5044100,13.4953610,,,0,
9160734,,Münsterlandplatz (Berlin) [Ri. Lückstr.],,52.5033410,13.4945880,,,0,
9160742,,Margaretenstr. (Berlin) [Ri. Lückstr.],,52.5083380,13.4974090,,,0,
9160743,,Margaretenstr. (Berlin) [Ri. Lichtenberger Br.],,52.5074430,13.4970840,,,0,
9161002,,U Tierpark (Berlin),,52.4972360,13.5236260,,,0,
9161003,,Rummelsburger Str./U Friedrichsfelde (Berlin),,52.5050410,13.5128200,,,0,
9161004,,Alt-Friedrichsfelde/Rhinstr. (Berlin),,52.5103460,13.5189680,,,0,
9161005,,Alt-Friedrichsfelde/Gensinger Str. (Berlin),,52.5101430,13.5319390,,,0,
9161006,,Sewanstr./Dolgenseestr. (Berlin),,52.4961940,13.5096300,,,0,
9161007,,Sewanstr./Volkradstr. (Berlin),,52.4971760,13.5058650,,,0,
9161008,,Feierabendheim (Berlin),,52.5112750,13.5326260,,,0,
9161502,,Mellenseestr. (Berlin),,52.4924610,13.5077060,,,0,
9161503,,Mellenseestr./Sewanstr. (Berlin),,52.4945930,13.5146260,,,0,
9161505,,Robert-Uhrig-Str. (Berlin),,52.5103160,13.5121620,,,0,
9161506,,Robert-Uhrig-Str./Zachertstr. (Berlin),,52.5047460,13.5113230,,,0,
9161508,,Criegernweg (Berlin),,52.5007300,13.5217590,,,0,
9161509,,Michiganseestr. (Berlin),,52.4984910,13.5014480,,,0,
9161510,,Lincolnstr. (Berlin),,52.5019440,13.5019930,,,0,
9161511,,Kraetkestr. (Berlin),,52.5030480,13.5077740,,,0,
9161512,,U Friedrichsfelde (Berlin),,52.5058950,13.5127910,,,0,
9161513,,Balatonstr. (Berlin),,52.4984650,13.5077050,,,0,
9161514,,Lincolnstr./Einbecker Str. (Berlin),,52.5085720,13.5072860,,,0,
9161515,,Schwarzmeerstr. (Berlin),,52.5023510,13.5095620,,,0,
9161516,,Gensinger Str. (Berlin),,52.5135130,13.5298900,,,0,
9161517,,Am Tierpark/A.-Kowalke-Str. (Berlin),,52.5057170,13.5197070,,,0,
9161518,,Erieseering (Berlin),,52.4948360,13.5202150,,,0,
9161519,,Bildungs- und Verwaltungszentrum (Berlin),,52.5101680,13.5265340,,,0,
9162001,,S Karlshorst Bhf (Berlin),,52.4810380,13.5259810,,,0,
9162002,,Hegemeisterweg (Berlin),,52.4740120,13.5202180,,,0,
9162003,,Treskowallee/Ehrlichstr. (Berlin),,52.4788880,13.5233010,,,0,
9162004,,Treskowallee/HTW (Berlin),,52.4928210,13.5265950,,,0,
9162007,,Marksburgstr. (Berlin),,52.4865620,13.5269080,,,0,
9162501,,S Karlshorst Bhf/Wandlitzstr. (Berlin),,52.4795680,13.5249140,,,0,
9162502,,Stühlinger Str. (Berlin),,52.4802540,13.5205370,,,0,
9162503,,Stechlinstr. (Berlin),,52.4818460,13.5169700,,,0,
9162504,,Blockdammweg/Ehrlichstr. (Berlin),,52.4840940,13.5098340,,,0,
9162505,,Rheinsteinstr. (Berlin),,52.4827110,13.5265690,,,0,
9162506,,Sangeallee (Berlin),,52.4874070,13.5199000,,,0,
9162507,,Tannhäuserstr. (Berlin),,52.4895710,13.5102570,,,0,
9162509,,Gregoroviusweg (Berlin),,52.4937600,13.5269370,,,0,
9162510,,Neuwieder Str. (Berlin),,52.4921610,13.5324910,,,0,
9162513,,Waldowallee (Berlin),,52.4839850,13.5315740,,,0,
9162514,,Köpenicker Allee (Berlin),,52.4856310,13.5370340,,,0,
9162517,,Ilsestr. (Berlin),,52.4879990,13.5165200,,,0,
9162518,,Kötztinger Str. (Berlin),,52.4929810,13.5385570,,,0,
9162519,,Museum Karlshorst (Berlin),,52.4866140,13.5388500,,,0,
9162522,,Rheinpfalzallee (Berlin),,52.4892880,13.5391640,,,0,
9162701,,S Karlshorst (Berlin) [Tram Ri. Tierpark],,52.4830520,13.5258740,,,0,
9162702,,S Karlshorst (Berlin) [Tram Ri. Schöneweide],,52.4824090,13.5256010,,,0,
9162703,,S Karlshorst (Berlin) [Bus Stolzenfelsstr.],,52.4814310,13.5261560,,,0,
9162716,,Hentigstr. (Berlin) [Marksburgstr.],,52.4869760,13.5233300,,,0,
9162717,,Hentigstr. (Berlin) [Dönhoffstr.],,52.4834840,13.5223260,,,0,
9162803,,Treskowallee/ Ehrlichstr. (Berlin),,52.4791890,13.5250340,,,0,
9170001,,S Marzahn (Berlin),,52.5432720,13.5415240,,,0,
9170002,,S Raoul-Wallenberg-Str. (Berlin),,52.5507490,13.5483920,,,0,
9170003,,S Mehrower Allee (Berlin),,52.5578160,13.5543920,,,0,
9170004,,S Ahrensfelde Bhf (Berlin),,52.5715640,13.5661180,,,0,
9170005,,S Poelchaustr. (Berlin),,52.5347510,13.5360080,,,0,
9170006,,Ahrensfelde/Stadtgrenze (Berlin),,52.5728350,13.5746750,,,0,
9170010,,Betriebshof Marzahn (Berlin),,52.5490060,13.5837140,,,0,
9170011,,Barnimplatz (Berlin),,52.5678060,13.5736980,,,0,
9170012,,Lea-Grundig-Str. (Berlin),,52.5558670,13.5678890,,,0,
9170013,,Landsberger Allee/Blumberger Damm (Berlin),,52.5461240,13.5720370,,,0,
9170014,,Blumberger Damm/Eisenacher Str. (Berlin),,52.5406410,13.5707360,,,0,
9170015,,Blumberger Damm/Elisabethstr. (Berlin),,52.5342490,13.5661010,,,0,
9170019,,Allee der Kosmonauten/Poelchaustr. (Berlin),,52.5339090,13.5523240,,,0,
9170020,,Marzahner Promenade (Berlin),,52.5434080,13.5496960,,,0,
9170021,,Schorfheidestr. (Berlin),,52.5706480,13.5755550,,,0,
9170500,,Flämingstr. (Berlin),,52.5692420,13.5691030,,,0,
9170501,,Rabensteiner Str. (Berlin),,52.5659630,13.5791630,,,0,
9170502,,Belziger Ring (Berlin),,52.5633850,13.5790560,,,0,
9170503,,Schwarzburger Str. (Berlin),,52.5604650,13.5742610,,,0,
9170504,,Trusetaler Str. (Berlin),,52.5613280,13.5633640,,,0,
9170506,,Niemegker Str. (Berlin),,52.5647250,13.5715820,,,0,
9170507,,Köthener Str. (Berlin),,52.5640110,13.5548610,,,0,
9170508,,Märkische Allee/Wuhletalstr. (Berlin),,52.5602760,13.5566170,,,0,
9170509,,Sella-Hasse-Str. (Berlin),,52.5561550,13.5610720,,,0,
9170510,,Blumberger Damm/Mehrower Allee (Berlin),,52.5553310,13.5737380,,,0,
9170511,,Rudolf-Leonhard-Str. (Berlin),,52.5503360,13.5728810,,,0,
9170512,,Kienbergstr./Gärten der Welt (Berlin),,52.5385610,13.5689960,,,0,
9170513,,Elisabethstr./Oberfeldstr. (Berlin),,52.5340490,13.5594910,,,0,
9170514,,Heliosstr. (Berlin),,52.5348710,13.5577960,,,0,
9170515,,Adersleber Weg (Berlin),,52.5378930,13.5603200,,,0,
9170516,,Alt-Marzahn (Berlin),,52.5419650,13.5637080,,,0,
9170517,,Jan-Petersen-Str. (Berlin),,52.5473110,13.5624240,,,0,
9170518,,Paul-Dessau-Str. (Berlin),,52.5484790,13.5556830,,,0,
9170519,,Freizeitforum Marzahn (Berlin),,52.5468290,13.5581310,,,0,
9170520,,Dingelstädter Str. (Berlin),,52.5367390,13.5247880,,,0,
9170521,,Gewerbepark Georg Knorr (Berlin),,52.5390470,13.5339770,,,0,
9170522,,Rebhuhnweg (Berlin),,52.5447650,13.5579110,,,0,
9170523,,Hinter der Mühle (Berlin),,52.5447220,13.5618300,,,0,
9170524,,Brodowiner Ring (Berlin),,52.5476390,13.5783570,,,0,
9170525,,Pekrunstr. (Berlin),,52.5401910,13.5461920,,,0,
9170526,,Hänflingsteig (Berlin),,52.5362290,13.5426340,,,0,
9170527,,Langhoffstr. (Berlin),,52.5342960,13.5433470,,,0,
9170528,,Zinndorfer Str. (Berlin),,52.5432420,13.5711240,,,0,
9170529,,Bürgerpark Marzahn (Berlin),,52.5498500,13.5607450,,,0,
9170530,,Max-Herrmann-Str. (Berlin),,52.5538740,13.5656800,,,0,
9170531,,Wuhletalstr. (Berlin),,52.5577140,13.5682350,,,0,
9170532,,Kiebitzgrund (Berlin),,52.5422570,13.5497000,,,0,
9170533,,Walter-Felsenstein-Str. (Berlin),,52.5540320,13.5523560,,,0,
9170534,,Bitterfelder Str./Wolfener Str. (Berlin),,52.5536650,13.5453240,,,0,
9170535,,Boxberger Str. (Berlin),,52.5543400,13.5383590,,,0,
9170536,,Klettwitzer Str. (Berlin),,52.5559960,13.5305870,,,0,
9170537,,Gärten der Welt (Berlin),,52.5401110,13.5767750,,,0,
9170540,,Havemannstr./Kemberger Str. (Berlin),,52.5653260,13.5804080,,,0,
9170541,,Schleusinger Str. (Berlin),,52.5563480,13.5634670,,,0,
9170707,,Köthener  Str. (Berlin),,52.5637260,13.5546600,,,0,
9171001,,S Biesdorf (Berlin),,52.5130590,13.5550350,,,0,
9171002,,S Friedrichsfelde Ost (Berlin),,52.5137470,13.5200430,,,0,
9171003,,S Springpfuhl (Berlin),,52.5258060,13.5369040,,,0,
9171005,,U Biesdorf-Süd (Berlin),,52.4995170,13.5473260,,,0,
9171006,,U Elsterwerdaer Platz (Berlin),,52.5046430,13.5607620,,,0,
9171007,,Gleiwitzer Str. (Berlin),,52.4939160,13.5618250,,,0,
9171008,,Allee der Kosmonauten/Rhinstr. (Berlin),,52.5254990,13.5196530,,,0,
9171009,,Rapsweg/Unfallkrankenhaus (Berlin),,52.5188280,13.5639460,,,0,
9171010,,Cecilienstr./Blumberger Damm (Berlin),,52.5290770,13.5657690,,,0,
9171011,,Landsberger Allee/Rhinstr. (Berlin),,52.5356560,13.5174840,,,0,
9171501,,Elsenallee (Berlin),,52.4887020,13.5605650,,,0,
9171502,,Irmastr. (Berlin),,52.4748510,13.5592660,,,0,
9171503,,Hadubrandstr. (Berlin),,52.4794110,13.5597070,,,0,
9171504,,Arnfriedstr. (Berlin),,52.4844110,13.5601780,,,0,
9171505,,Pirolstr. (Berlin),,52.4947240,13.5550510,,,0,
9171506,,Roßlauer Str. (Berlin),,52.5157750,13.5548660,,,0,
9171512,,Altentreptower Str. (Berlin),,52.5130600,13.5698990,,,0,
9171513,,Buckower Ring (Berlin),,52.5251190,13.5653190,,,0,
9171514,,Meeraner Str. (Berlin),,52.5292700,13.5192680,,,0,
9171515,,Beilsteiner Str. (Berlin),,52.5254990,13.5301150,,,0,
9171516,,Helene-Weigel-Platz (Berlin),,52.5259620,13.5428780,,,0,
9171517,,Boschpoler Str. (Berlin),,52.5275020,13.5488110,,,0,
9171519,,Garzauer Str. (Berlin),,52.5284720,13.5713770,,,0,
9171520,,Cecilienstr./Wuhle (Berlin),,52.5262220,13.5770000,,,0,
9171522,,Cecilienstr./Oberfeldstr. (Berlin),,52.5296370,13.5580670,,,0,
9171523,,Eitelstr. (Berlin),,52.5251920,13.5570550,,,0,
9171524,,Buschiner Str. (Berlin),,52.5226110,13.5564930,,,0,
9171525,,Biesdorfer Promenade (Berlin),,52.5187220,13.5556330,,,0,
9171526,,Bentschener Weg (Berlin),,52.5161620,13.5452450,,,0,
9171527,,Weißenhöher Str. (Berlin),,52.5074680,13.5536890,,,0,
9171528,,Märkische Allee/Alt-Friedrichsfelde (Berlin),,52.5099320,13.5405340,,,0,
9171529,,Lötschbergstr. (Berlin),,52.5093870,13.5485570,,,0,
9171531,,Oberfeldstr. (Berlin),,52.5091810,13.5532780,,,0,
9171532,,Alt-Biesdorf (Berlin),,52.5087920,13.5589940,,,0,
9171533,,Schlosspark Biesdorf (Berlin),,52.5120910,13.5623520,,,0,
9171534,,Grüne Aue (Berlin),,52.5052090,13.5736990,,,0,
9171535,,Dohlengrund (Berlin),,52.4982460,13.5633480,,,0,
9171536,,Grabensprung (Berlin),,52.4978920,13.5554280,,,0,
9171537,,Merler Weg (Berlin),,52.5221020,13.5328410,,,0,
9171538,,Kröver Str. (Berlin),,52.5196830,13.5308560,,,0,
9171539,,Reiler Str. (Berlin),,52.5168630,13.5279740,,,0,
9171540,,Kleingartenanlage Bielefeldt (Berlin),,52.5190140,13.5193410,,,0,
9171541,,Boschpoler Platz (Berlin),,52.5275740,13.5556660,,,0,
9171542,,Waldbacher Weg (Berlin),,52.5134640,13.5446790,,,0,
9171543,,Kohlweißlingstr. (Berlin),,52.5048990,13.5685770,,,0,
9171550,,Marzahner Chaussee (Berlin),,52.5145770,13.5254050,,,0,
9171700,,U Elsterwerdaer Platz (Berlin) [Busendstelle],,52.5063480,13.5609700,,,0,
9171701,,U Elsterwerdaer Platz (Berlin) Bus Köpenicker S.,,52.5052520,13.5622560,,,0,
9171708,,Allee der Kosmonauten/ Rhinstr. (Berlin),,52.5258750,13.5204920,,,0,
9171709,,Allee der  Kosmonauten/Rhinstr. (Berlin),,52.5258650,13.5184430,,,0,
9175001,,S+U Wuhletal (Berlin),,52.5124650,13.5754520,,,0,
9175002,,S Kaulsdorf (Berlin),,52.5121220,13.5890300,,,0,
9175004,,U Kaulsdorf-Nord (Berlin),,52.5214360,13.5887630,,,0,
9175005,,U Neue Grottkauer Str. (Berlin),,52.5282400,13.5907770,,,0,
9175006,,U Cottbusser Platz (Berlin),,52.5339630,13.5968940,,,0,
9175007,,U Hellersdorf (Berlin),,52.5359460,13.6057940,,,0,
9175008,,Chemnitzer Str./Jägerstr. (Berlin),,52.4860580,13.5742220,,,0,
9175009,,Heerstr./Chemnitzer Str. (Berlin),,52.4907650,13.5758040,,,0,
9175010,,U Hönow (Berlin),,52.5381050,13.6345410,,,0,
9175011,,Stendaler Str./Quedlinburger Str. (Berlin),,52.5389560,13.6045180,,,0,
9175012,,Hellersdorfer Eck (Berlin),,52.5317500,13.5915680,,,0,
9175013,,Riesaer Str. (Berlin),,52.5294040,13.6241830,,,0,
9175014,,Riesaer Str./Louis-Lewin-Str. (Berlin),,52.5303270,13.6223890,,,0,
9175015,,U Louis-Lewin-Str. (Berlin),,52.5391350,13.6197070,,,0,
9175500,,Gutenbergstr. (Berlin),,52.5149970,13.5836980,,,0,
9175501,,Feuersteiner Str. (Berlin),,52.4760770,13.5692150,,,0,
9175502,,Deutschhofer Allee (Berlin),,52.4798160,13.5691560,,,0,
9175503,,Gerdastr. (Berlin),,52.4934080,13.5764280,,,0,
9175504,,Sadowastr. (Berlin),,52.4826250,13.5849930,,,0,
9175505,,Eichenstr. (Berlin),,52.4851240,13.5809610,,,0,
9175506,,An der Wuhle (Berlin),,52.4851780,13.5653870,,,0,
9175507,,Schwarzheider Str. (Berlin),,52.5358490,13.6227400,,,0,
9175508,,Oschatzer Ring (Berlin),,52.5408680,13.6178990,,,0,
9175509,,Am Birkenwerder (Berlin),,52.4851060,13.5701400,,,0,
9175510,,Landsberger Chaussee/Zossener Str. (Berlin),,52.5492180,13.5879970,,,0,
9175511,,Michendorfer Str. (Berlin),,52.5455360,13.5870680,,,0,
9175512,,Alte Hellersdorfer/Zossener Str. (Berlin),,52.5448390,13.5921730,,,0,
9175513,,Zossener Str./Kastanienallee (Berlin),,52.5437910,13.5991960,,,0,
9175514,,Stendaler Str./Zossener Str. (Berlin),,52.5437050,13.6035570,,,0,
9175515,,Klausdorfer Str. (Berlin),,52.5478140,13.5928260,,,0,
9175516,,Branitzer Str. (Berlin),,52.5325010,13.6217920,,,0,
9175517,,Janusz-Korczak-Str. (Berlin),,52.5389140,13.6076420,,,0,
9175518,,Aurorafalterweg (Berlin),,52.5013100,13.5613800,,,0,
9175519,,Nossener Str. (Berlin),,52.5329380,13.6101940,,,0,
9175520,,Jenaer Str. (Berlin),,52.5319210,13.6149320,,,0,
9175521,,Grottkauer Str. (Berlin),,52.5272640,13.6064500,,,0,
9175522,,Tolkmittstr. (Berlin),,52.5240140,13.6062130,,,0,
9175523,,Slabystr. (Berlin),,52.5214090,13.6060740,,,0,
9175524,,Wernerbad (Berlin),,52.5184790,13.6073820,,,0,
9175525,,Briesener Weg (Berlin),,52.5139560,13.6062730,,,0,
9175526,,Giesestr./Landrestr. (Berlin),,52.5147710,13.6031800,,,0,
9175527,,Giesestr. (Berlin),,52.5161190,13.5978960,,,0,
9175528,,Heinrich-Grüber-Str. (Berlin),,52.5155350,13.5931760,,,0,
9175529,,Uckermarkstr. (Berlin),,52.5216730,13.5978470,,,0,
9175530,,Iselbergstr. (Berlin),,52.5243810,13.5996700,,,0,
9175531,,Am Baltenring (Berlin),,52.5276820,13.6007770,,,0,
9175532,,Gülzower Str. (Berlin),,52.5184010,13.5952980,,,0,
9175534,,Gothaer Str./Alte Hellersdorfer Str. (Berlin),,52.5415320,13.5907560,,,0,
9175535,,Suhler Str. (Berlin),,52.5394630,13.5855810,,,0,
9175536,,Gothaer Str./Eisenacher Str. (Berlin),,52.5385740,13.5888950,,,0,
9175537,,Spremberger Str. (Berlin),,52.5347740,13.5914400,,,0,
9175538,,Cecilienstr./Hellersdorfer Str. (Berlin),,52.5243610,13.5877930,,,0,
9175539,,Tollensestr. (Berlin),,52.5243160,13.5837830,,,0,
9175540,,Bredereckstr. (Berlin),,52.5127950,13.5957280,,,0,
9175541,,Bausdorfstr./Landrestr. (Berlin),,52.5125710,13.6010230,,,0,
9175542,,Franzburger Str. (Berlin),,52.5111440,13.5962280,,,0,
9175543,,Stöwestr. (Berlin),,52.5130010,13.5931430,,,0,
9175544,,Myslowitzer Str./Klinikum (Berlin),,52.5069360,13.5916860,,,0,
9175547,,Penkuner Weg (Berlin),,52.5028260,13.5865300,,,0,
9175548,,Alt-Kaulsdorf/Chemnitzer Str. (Berlin),,52.5045660,13.5814380,,,0,
9175549,,Achardstr. (Berlin),,52.4999860,13.5791380,,,0,
9175550,,Wernitzer Str. (Berlin),,52.4966030,13.5774260,,,0,
9175551,,Naumburger Ring (Berlin),,52.5398950,13.6108030,,,0,
9175552,,Mädewalder Weg (Berlin),,52.5057120,13.5885190,,,0,
9175553,,Planitzstr. (Berlin),,52.5112730,13.5873210,,,0,
9175554,,Teupitzer Str. (Berlin),,52.5472640,13.5995730,,,0,
9175555,,Adolfstr. (Berlin),,52.5050930,13.5850510,,,0,
9175556,,Hellersdorfer Str./Gülzower Str. (Berlin),,52.5176400,13.5890530,,,0,
9175557,,Lammersdorfer Weg (Berlin),,52.4926500,13.5699080,,,0,
9175558,,Heinrich-Grüber-Platz (Berlin),,52.5112910,13.5879550,,,0,
9175559,,Ohserring (Berlin),,52.5188330,13.6005580,,,0,
9176001,,S Mahlsdorf (Berlin),,52.5121180,13.6112300,,,0,
9176004,,Wacholderheide (Berlin),,52.5293960,13.6384030,,,0,
9176005,,Lemkestr./Kieler Str. (Berlin),,52.5230650,13.6334670,,,0,
9176006,,Am Rosenhag (Berlin),,52.5247630,13.6218010,,,0,
9176007,,Wodanstr./S Mahlsdorf (Berlin),,52.5130030,13.6122340,,,0,
9176008,,Wilhelmsmühlenweg (Berlin),,52.5085500,13.6131910,,,0,
9176009,,Hönower Str./Riesaer Str. (Berlin),,52.5290660,13.6258500,,,0,
9176010,,Lemkestr./Greifswalder Str. (Berlin),,52.5280490,13.6409320,,,0,
9176011,,Dahlwitzer Str./Greifswalder Str. (Berlin),,52.5272130,13.6441430,,,0,
9176500,,Lübecker Str. (Berlin),,52.5261030,13.6380300,,,0,
9176501,,Fritz-Reuter-Str. (Berlin),,52.5111430,13.6148470,,,0,
9176502,,Donizettistr./Lemkestr. (Berlin),,52.5122030,13.6194670,,,0,
9176503,,Donizettistr./Straußstr. (Berlin),,52.5115480,13.6278990,,,0,
9176504,,Pfalzgrafenweg (Berlin),,52.5099800,13.6308460,,,0,
9176505,,Straußstr. (Berlin),,52.5091830,13.6266770,,,0,
9176506,,Landsberger Str. (Berlin),,52.5094690,13.6229020,,,0,
9176508,,Menzelstr. (Berlin),,52.5137860,13.6220300,,,0,
9176509,,Löwestr. (Berlin),,52.5152490,13.6286840,,,0,
9176510,,Lemkestr./Lenbachstr. (Berlin),,52.5186620,13.6275280,,,0,
9176511,,Donizettistr. (Berlin),,52.5119600,13.6240550,,,0,
9176512,,Hultschiner Damm/Seestr. (Berlin),,52.4770940,13.6006030,,,0,
9176513,,Linderhofstr. (Berlin),,52.5174340,13.6148420,,,0,
9176514,,Karlshafener Str. (Berlin),,52.5203970,13.6176620,,,0,
9176517,,An den Siedlergärten (Berlin),,52.5297830,13.6312110,,,0,
9176519,,Terwestenstr. (Berlin),,52.5216070,13.6466150,,,0,
9176520,,Hirtschulzstr. (Berlin),,52.5167810,13.6086750,,,0,
9176521,,Hultschiner Damm (Berlin),,52.5009440,13.6080960,,,0,
9176522,,Am Kornfeld (Berlin),,52.5104640,13.6020070,,,0,
9176523,,Kressenweg (Berlin),,52.5024760,13.5965180,,,0,
9176524,,Alt-Mahlsdorf (Berlin),,52.5051160,13.6132710,,,0,
9176525,,Rahnsdorfer Str. (Berlin),,52.4984480,13.6131890,,,0,
9176526,,Ledebourstr. (Berlin),,52.4937150,13.6096730,,,0,
9176527,,Summter Str. (Berlin),,52.4777430,13.6136820,,,0,
9176528,,Mirower Str. (Berlin),,52.4781350,13.6099870,,,0,
9176529,,Wilhelm-Blos-Str. (Berlin),,52.4789120,13.6037160,,,0,
9176531,,Mechthildstr. (Berlin),,52.4782020,13.5937690,,,0,
9176532,,Wielandstr. (Berlin),,52.4808710,13.5884630,,,0,
9176533,,Roseggerstr. (Berlin),,52.4802960,13.6010570,,,0,
9176534,,Erich-Baron-Weg (Berlin),,52.4834810,13.6022040,,,0,
9176535,,Bütower Str. (Berlin),,52.4858210,13.6039380,,,0,
9176536,,Bruchsaler Str. (Berlin),,52.4887400,13.6060310,,,0,
9176537,,Eichenhofweg (Berlin),,52.4909920,13.6076450,,,0,
9176538,,Neuenhagener Str. (Berlin),,52.5090780,13.6100730,,,0,
9176539,,Ridbacher Str./Hönower Str. (Berlin),,52.5140750,13.6120670,,,0,
9176540,,Pilgramer Str./Rahnsdorfer Str. (Berlin),,52.4965570,13.6193930,,,0,
9176541,,Pilgramer Str./Gewerbegebiet (Berlin),,52.5013940,13.6206020,,,0,
9176542,,Landsberger Str./Gewerbegebiet (Berlin),,52.5062390,13.6211920,,,0,
9176543,,Gielsdorfer Str. (Berlin),,52.5096540,13.6060140,,,0,
9176550,,Wildrosengehölz (Berlin),,52.5277700,13.6246380,,,0,
9176701,,S Mahlsdorf (Berlin) [Bus Hönower Str.],,52.5119200,13.6125630,,,0,
9176702,,S Mahlsdorf (Berlin) [Tram Bus Treskowstr.],,52.5112540,13.6106530,,,0,
9180001,,S Köpenick (Berlin),,52.4586920,13.5795430,,,0,
9180002,,S Wuhlheide (Berlin),,52.4690580,13.5535270,,,0,
9180003,,S Spindlersfeld (Berlin),,52.4459380,13.5627010,,,0,
9180004,,Pablo-Neruda-Str. (Berlin),,52.4410380,13.5864260,,,0,
9180005,,Müggelheimer Str./Wendenschloßstr. (Berlin),,52.4429800,13.5816720,,,0,
9180006,,Freiheit (Berlin),,52.4466770,13.5760970,,,0,
9180007,,Schloßplatz Köpenick (Berlin),,52.4442840,13.5749230,,,0,
9180008,,Bahnhofstr./Lindenstr. (Berlin),,52.4509140,13.5724090,,,0,
9180009,,Bahnhofstr./Seelenbinderstr. (Berlin),,52.4553930,13.5768790,,,0,
9180010,,Mahlsdorfer Str./Gehsener Str. (Berlin),,52.4632020,13.5837060,,,0,
9180011,,Semliner Str. (Berlin),,52.4664210,13.5761850,,,0,
9180012,,Köllnischer Platz (Berlin),,52.4445750,13.5692560,,,0,
9180013,,Bellevuestr. (Berlin),,52.4530420,13.5940220,,,0,
9180014,,Müggelbergallee (Berlin),,52.4184540,13.5889960,,,0,
9180015,,Wendenschloß (Berlin),,52.4173080,13.5893510,,,0,
9180016,,Hirtestr. (Berlin),,52.4599370,13.5846040,,,0,
9180017,,Mahlsdorf-Süd (Berlin),,52.4741200,13.5985370,,,0,
9180018,,Müggelschlößchenweg (Berlin),,52.4419510,13.6033430,,,0,
9180019,,Krkhs. Köpenick/Besuchereingang (Berlin),,52.4413170,13.5937600,,,0,
9180020,,S.-Allende-Str./Wendenschloßstr. (Berlin),,52.4470570,13.5939820,,,0,
9180021,,Köpenicker Str./Innovationspark (Berlin),,52.4726880,13.5590710,,,0,
9180022,,Krankenhaus Köpenick/Südseite (Berlin),,52.4386920,13.5931360,,,0,
9180023,,Innovationspark Wuhlheide (Berlin),,52.4699800,13.5654210,,,0,
9180024,,Rathaus Köpenick (Berlin),,52.4453250,13.5743720,,,0,
9180501,,Ludwigshöheweg (Berlin),,52.4154530,13.6563110,,,0,
9180502,,Müggelseeperle (Berlin),,52.4216500,13.6411810,,,0,
9180503,,Rübezahl (Berlin),,52.4239900,13.6293010,,,0,
9180504,,Chausseehaus (Berlin),,52.4300470,13.6149380,,,0,
9180505,,Kienappelweg (Berlin),,52.4344130,13.6038630,,,0,
9180506,,Landjägerstr. (Berlin),,52.4437420,13.5838760,,,0,
9180507,,Filehner Str. (Berlin),,52.4652340,13.5789380,,,0,
9180508,,Kleinschewskystr. (Berlin),,52.4704110,13.5728830,,,0,
9180509,,Hoppendorfer Str. (Berlin),,52.4735960,13.5705690,,,0,
9180510,,Ottomar-Geschke-Str. (Berlin),,52.4419710,13.5595300,,,0,
9180511,,Gelnitzstr. (Berlin),,52.4554360,13.5857670,,,0,
9180512,,Brandenburgplatz (Berlin),,52.4552750,13.5911160,,,0,
9180513,,Hirtestr./Janitzkystr. (Berlin),,52.4615880,13.5841190,,,0,
9180514,,Betriebshof Köpenick (Berlin),,52.4393290,13.5818790,,,0,
9180515,,Mayschweg (Berlin),,52.4358950,13.5825650,,,0,
9180516,,Segewaldweg (Berlin),,52.4344350,13.5828510,,,0,
9180517,,Pritstabelstr. (Berlin),,52.4304480,13.5839280,,,0,
9180518,,Dregerhoffstr. (Berlin),,52.4275010,13.5852490,,,0,
9180519,,Zur Nachtheide (Berlin),,52.4249770,13.5864520,,,0,
9180520,,Lienhardweg (Berlin),,52.4216490,13.5879640,,,0,
9180521,,Betonwerk (Berlin),,52.4292300,13.5722100,,,0,
9180522,,Rosenweg (Berlin),,52.4343910,13.5713940,,,0,
9180523,,Vollkropfgraben (Berlin),,52.4385130,13.5715850,,,0,
9180524,,Glienicker Str. (Berlin),,52.4410740,13.5702790,,,0,
9180525,,Unter den Birken (Berlin),,52.4698640,13.5888760,,,0,
9180526,,Wongrowitzer Steig (Berlin),,52.4670700,13.5854930,,,0,
9180527,,Erwin-Bock-Str. (Berlin),,52.4417610,13.5994530,,,0,
9180528,,Anemonenstr. (Berlin),,52.4440520,13.5935940,,,0,
9180529,,Am Berg (Berlin),,52.4454360,13.5882310,,,0,
9180530,,Hoernlestr. (Berlin),,52.4638190,13.5759000,,,0,
9180531,,Friedrichshagener Str./Kabelwerk (Berlin),,52.4512280,13.5899110,,,0,
9180532,,Bellevuepark (Berlin),,52.4517480,13.5846630,,,0,
9180533,,Mandrellaplatz (Berlin),,52.4553890,13.5819250,,,0,
9180534,,Kaulsdorfer Str. (Berlin),,52.4603520,13.5797930,,,0,
9180536,,Puchanstr. (Berlin),,52.4524500,13.5785830,,,0,
9180538,,Bärenlauchstr. (Berlin),,52.4509130,13.5390610,,,0,
9180539,,Friedlander Str. (Berlin),,52.4478280,13.5536330,,,0,
9180540,,Freystadter Weg (Berlin),,52.4470240,13.5573850,,,0,
9180541,,Müggelhort (Berlin),,52.4329350,13.6760240,,,0,
9180542,,Zinsgutstr. (Berlin),,52.4351560,13.5590840,,,0,
9180543,,Rudower Str. (Berlin),,52.4388330,13.5650960,,,0,
9180544,,Neuer Weg (Berlin),,52.4511630,13.5934540,,,0,
9180546,,Salvador-Allende-Brücke (Berlin),,52.4481810,13.5939640,,,0,
9180547,,Oberspreestr./Bundeswehr (Berlin),,52.4482350,13.5514110,,,0,
9180549,,Kohlisstr. (Berlin),,52.4752540,13.5997410,,,0,
9180701,,S Köpenick (Berlin) [Tram Stellingdamm],,52.4589340,13.5809340,,,0,
9180716,,Hirtestraße (Berlin),,52.4588780,13.5837870,,,0,
9181001,,Wilhelminenhofstr./Edisonstr. (Berlin),,52.4624600,13.5141550,,,0,
9181002,,Rummelsburger Str./Edisonstr. (Berlin),,52.4681360,13.5137170,,,0,
9181003,,Freizeit- und Erholungszentrum (Berlin),,52.4575180,13.5438960,,,0,
9181006,,Wilhelmstrand (Berlin),,52.4741040,13.4968200,,,0,
9181501,,Treskowallee/Volkspark Wuhlheide (Berlin),,52.4710580,13.5171440,,,0,
9181502,,Firlstr. (Berlin),,52.4608510,13.5211330,,,0,
9181503,,Rathenaustr./HTW (Berlin),,52.4589260,13.5254660,,,0,
9181504,,Ostendstr. (Berlin),,52.4572440,13.5338820,,,0,
9181505,,Parkstr. (Berlin),,52.4576190,13.5396620,,,0,
9181506,,Nixenstr. (Berlin),,52.4563310,13.5508130,,,0,
9181507,,Spindlersfelder Str. (Berlin),,52.4559300,13.5587440,,,0,
9181513,,Alte Försterei (Berlin),,52.4565160,13.5634140,,,0,
9181701,,Wilhelminenhofstr./ Edisonstr. (Berlin),,52.4617960,13.5140150,,,0,
9182001,,S Hirschgarten (Berlin),,52.4579030,13.6014800,,,0,
9182002,,S Friedrichshagen (Berlin),,52.4570900,13.6254620,,,0,
9182003,,Hirschgarten (Berlin),,52.4516490,13.6007090,,,0,
9182004,,Müggelseedamm/Bölschestr. (Berlin),,52.4473720,13.6243240,,,0,
9182005,,Altes Wasserwerk (Berlin),,52.4477580,13.6393710,,,0,
9182501,,Westendsiedlung (Berlin),,52.4533610,13.6089800,,,0,
9182502,,Mühlweg (Berlin),,52.4543520,13.6133860,,,0,
9182503,,Ahornallee (Berlin),,52.4556060,13.6190220,,,0,
9182504,,Drachholzstr. (Berlin),,52.4539400,13.6250960,,,0,
9182505,,Marktplatz Friedrichshagen (Berlin),,52.4508270,13.6246870,,,0,
9182506,,Josef-Nawrocki-Str. (Berlin),,52.4466790,13.6289470,,,0,
9182507,,Bruno-Wille-Str. (Berlin),,52.4469740,13.6323110,,,0,
9182508,,Wassersportzentrum (Berlin),,52.4486050,13.6103810,,,0,
9182509,,Spreestr. (Berlin),,52.4469600,13.6157040,,,0,
9182510,,Hartlebenstr. (Berlin),,52.4567000,13.6329070,,,0,
9182511,,Wasserwerk Friedrichshagen (Berlin),,52.4559940,13.6430170,,,0,
9182512,,Fürstenwalder Damm (Berlin),,52.4521530,13.6535390,,,0,
9182513,,Fürstenwalder Damm/Müggelseedamm (Berlin),,52.4494100,13.6632480,,,0,
9182514,,Brösener Str. (Berlin),,52.4586380,13.6357440,,,0,
9182705,,Altes Wasserwerk (Berlin) [Ausstieg],,52.4481620,13.6406510,,,0,
9183001,,S Rahnsdorf (Berlin),,52.4513710,13.6916550,,,0,
9183002,,S Wilhelmshagen (Berlin),,52.4385710,13.7210040,,,0,
9183003,,Rahnsdorf/Waldschänke (Berlin),,52.4433910,13.6859370,,,0,
9183004,,Schönblicker Str. (Berlin),,52.4330740,13.7114970,,,0,
9183005,,Fahlenbergstr. (Berlin),,52.4313250,13.7198980,,,0,
9183006,,Lutherstr. (Berlin),,52.4282130,13.7304960,,,0,
9183007,,S Rahnsdorf (Berlin) [Tram],,52.4515280,13.6932500,,,0,
9183501,,Lagunenweg (Berlin),,52.4318690,13.7146410,,,0,
9183502,,Waldschützpfad (Berlin),,52.4410850,13.6906870,,,0,
9183503,,Hortwinkeler Weg (Berlin),,52.4412120,13.6956190,,,0,
9183504,,Petershagener Weg (Berlin),,52.4413430,13.6996390,,,0,
9183505,,Mönchsheimer Str. (Berlin),,52.4385550,13.6997530,,,0,
9183506,,Grünheider Weg (Berlin),,52.4359800,13.6988150,,,0,
9183507,,Fürstenwalder Allee/Schule (Berlin),,52.4342490,13.7054690,,,0,
9183508,,Frankenbergstr. (Berlin),,52.4364260,13.7170680,,,0,
9183510,,Dämeritzstr. (Berlin),,52.4259030,13.7268320,,,0,
9183511,,Eichenstr./Waldstr. (Berlin),,52.4247730,13.7223920,,,0,
9183512,,Hubertusstr. (Berlin),,52.4265750,13.7195960,,,0,
9183513,,Licht- und Luftbad Müggelsee (Berlin),,52.4472850,13.6711700,,,0,
9183514,,Strandbad Müggelsee (Berlin),,52.4457910,13.6776740,,,0,
9183515,,Müggelwerderweg (Berlin),,52.4367090,13.6811520,,,0,
9183516,,Kruggasse (Berlin),,52.4299910,13.6890130,,,0,
9184001,,Odernheimer Str. (Berlin),,52.4239710,13.6806670,,,0,
9184002,,Alt-Müggelheim (Berlin),,52.4099090,13.6664640,,,0,
9184003,,Müggelheim/Dorf (Berlin),,52.4124880,13.6620050,,,0,
9184501,,Gosener Kanal (Berlin),,52.4038930,13.7001240,,,0,
9184502,,Waldfriedhof Müggelheim (Berlin),,52.4074060,13.6763040,,,0,
9184503,,Raumbacher Str. (Berlin),,52.4211200,13.6763690,,,0,
9184504,,Rehborner Str. (Berlin),,52.4191920,13.6735470,,,0,
9184505,,Annweilerweg (Berlin),,52.4149570,13.6673160,,,0,
9184506,,Krampenburg (Berlin),,52.3898390,13.6505180,,,0,
9184508,,Neu Helgoland (Berlin),,52.4289210,13.6833550,,,0,
9184509,,Spreewiesen (Berlin),,52.4295500,13.6890840,,,0,
9185001,,Alt-Schmöckwitz (Berlin),,52.3759180,13.6491180,,,0,
9185002,,Fährallee (Berlin),,52.3475680,13.6454200,,,0,
9185003,,Moßkopfring (Berlin),,52.3405130,13.6473300,,,0,
9185500,,Zeuthener Weg (Berlin),,52.3425750,13.6470830,,,0,
9185501,,Zum Seeblick (Berlin),,52.3791770,13.6442310,,,0,
9185503,,Adlergestell/Vetschauer Allee (Berlin),,52.3861620,13.6337820,,,0,
9185504,,Lübbenauer Weg (Berlin),,52.3913130,13.6349420,,,0,
9185505,,Schappachstr. (Berlin),,52.3946180,13.6318760,,,0,
9185506,,Teikyo-University (Berlin),,52.3679560,13.6560890,,,0,
9185507,,Zeltplatz (Berlin),,52.3606760,13.6522490,,,0,
9185509,,Wernsdorfer Str. (Berlin),,52.3715930,13.6710120,,,0,
9185701,,Alt--Schmöckwitz (Berlin),,52.3750880,13.6500260,,,0,
9185702,,Alt-Schmöckwitz. (Berlin),,52.3746570,13.6493350,,,0,
9186001,,S Grünau (Berlin),,52.4127140,13.5740180,,,0,
9186002,,Wassersportallee (Berlin),,52.4163020,13.5799230,,,0,
9186500,,Bammelecke (Berlin),,52.4055920,13.6214800,,,0,
9186501,,Richtershorn (Berlin),,52.4010060,13.6248830,,,0,
9186502,,Strandbad Grünau (Berlin),,52.4087010,13.6043560,,,0,
9186503,,Regattastr./Sportpromenade (Berlin),,52.4106160,13.5976940,,,0,
9186504,,Regattatribünen (Berlin),,52.4115970,13.5875880,,,0,
9186505,,Regattastr./Schule (Berlin),,52.4203900,13.5779960,,,0,
9186506,,Friedrich-Wolf-Str. (Berlin),,52.4247530,13.5750060,,,0,
9186701,,S Grünau (Berlin) [Adlergestell],,52.4131310,13.5750910,,,0,
9186702,,S Grünau (Berlin) [Wassersportallee],,52.4140140,13.5749020,,,0,
9186703,,S Grünau (Berlin) [Busendstelle],,52.4129860,13.5717500,,,0,
9186704,,S Grünau (Berlin) [Richterstr.],,52.4124120,13.5730080,,,0,
9190001,,S Treptower Park (Berlin),,52.4930220,13.4608870,,,0,
9190002,,Rathaus Treptow (Berlin),,52.4843970,13.4794300,,,0,
9190004,,Eichenstr./Puschkinallee (Berlin),,52.4945070,13.4534710,,,0,
9190006,,Beermannstr. (Berlin),,52.4911910,13.4570720,,,0,
9190009,,Heidelberger Str. (Berlin),,52.4882690,13.4490840,,,0,
9190010,,Lohmühlenstr. (Berlin),,52.4926770,13.4450620,,,0,
9190100,,Elsenstr./S Treptower Park (Berlin),,52.4928860,13.4588070,,,0,
9190501,,Alt-Treptow (Berlin),,52.4870500,13.4771340,,,0,
9190502,,Sowjetisches Ehrenmal (Berlin),,52.4895530,13.4703420,,,0,
9190503,,Herkomerstr. (Berlin),,52.4872730,13.4643040,,,0,
9190504,,Klingerstr. (Berlin),,52.4836120,13.4695850,,,0,
9190505,,Elsenstr./Kiefholzstr. (Berlin),,52.4885470,13.4535540,,,0,
9190506,,Bouchéstr. (Berlin),,52.4904870,13.4484950,,,0,
9190507,,Rethelstr. (Berlin),,52.4857000,13.4665040,,,0,
9190508,,Am Plänterwald (Berlin),,52.4830410,13.4808120,,,0,
9190701,,S Treptower Park (Berlin) [Bus Puschkinallee],,52.4921300,13.4618000,,,0,
9190702,,S Treptower Park (Berlin) [Bus Treptowers],,52.4941910,13.4615300,,,0,
9191001,,S Baumschulenweg (Berlin),,52.4675810,13.4895050,,,0,
9191002,,S Plänterwald (Berlin),,52.4787220,13.4740290,,,0,
9191003,,Baumschulenstr./Köpenicker Landstr. (Berlin),,52.4690950,13.4913230,,,0,
9191004,,Kiefholzstr./Baumschulenstr. (Berlin),,52.4655630,13.4870830,,,0,
9191005,,Eichbuschallee/Köpenicker Landstr. (Berlin),,52.4741050,13.4838830,,,0,
9191501,,Sonnenallee/Baumschulenstr. (Berlin),,52.4604430,13.4811280,,,0,
9191502,,Frauenlobstr. (Berlin),,52.4633410,13.4843590,,,0,
9191503,,Lakegrund (Berlin),,52.4718880,13.4907990,,,0,
9191504,,Eichbuschallee (Berlin),,52.4757240,13.4873810,,,0,
9191505,,Neue Krugallee/Dammweg (Berlin),,52.4800510,13.4834790,,,0,
9191506,,Krematorium Baumschulenweg (Berlin),,52.4607310,13.4939380,,,0,
9191507,,Marientaler Str. (Berlin),,52.4642900,13.4888940,,,0,
9191508,,Mosischstr. (Berlin),,52.4674840,13.4843810,,,0,
9191509,,Hänselstr. (Berlin),,52.4699630,13.4809030,,,0,
9191510,,Bergaustr. (Berlin),,52.4725470,13.4805480,,,0,
9191511,,Köpenicker Landstr./Dammweg (Berlin),,52.4776030,13.4787310,,,0,
9191512,,Köpenicker Landstr./Sportplatz (Berlin),,52.4714510,13.4876790,,,0,
9191513,,Baumschulenstr./Fähre (Berlin),,52.4718820,13.4947870,,,0,
9191515,,Dammweg/Bergaustr. (Berlin),,52.4760830,13.4758980,,,0,
9191701,,Sonnenallee/ Baumschulenstr. (Berlin),,52.4610690,13.4799420,,,0,
9191702,,Sonnenallee /Baumschulenstr. (Berlin),,52.4613800,13.4801880,,,0,
9191802,,S Plänterwald (Berlin) [Bus Köpenicker Landstr.],,52.4796720,13.4757090,,,0,
9192001,,S Schöneweide Bhf (Berlin),,52.4546110,13.5101490,,,0,
9192002,,S Oberspree (Berlin),,52.4522690,13.5384610,,,0,
9192501,,Doku.-zentrum NS-Zwangsarbeit (Berlin),,52.4532520,13.5180470,,,0,
9192502,,Bruno-Bürgel-Weg (Berlin),,52.4521180,13.5320420,,,0,
9192503,,Rudower Str./Schnellerstr. (Berlin),,52.4530940,13.5239990,,,0,
9192504,,Britzer Str. (Berlin),,52.4538540,13.5201270,,,0,
9192505,,Hasselwerderstr. (Berlin),,52.4551890,13.5141560,,,0,
9192506,,Brückenstr. (Berlin),,52.4585770,13.5120650,,,0,
9192507,,Schnellerstr./Karlshorster Str. (Berlin),,52.4614470,13.5026290,,,0,
9192508,,Marggraffbrücke (Berlin),,52.4655410,13.4966320,,,0,
9192509,,Schnellerstr./Köllnische Str. (Berlin),,52.4522720,13.5284720,,,0,
9192701,,S Schöneweide (Berlin) [Vorplatz],,52.4554250,13.5118390,,,0,
9193001,,S Betriebsbahnhof Schöneweide (Berlin),,52.4466950,13.5240280,,,0,
9193002,,S Adlershof (Berlin),,52.4351020,13.5405530,,,0,
9193500,,Otto-Franke-Str. (Berlin),,52.4315060,13.5468240,,,0,
9193501,,Adlergestell/Glienicker Weg (Berlin),,52.4292330,13.5501700,,,0,
9193502,,Glienicker Weg/Nipkowstr. (Berlin),,52.4330330,13.5551560,,,0,
9193503,,Radickestr./Nipkowstr. (Berlin),,52.4361780,13.5497080,,,0,
9193505,,Marktplatz Adlershof (Berlin),,52.4381060,13.5486580,,,0,
9193506,,Wassermannstr. (Berlin),,52.4395550,13.5525920,,,0,
9193508,,Radickestr./Anna-Seghers-Str. (Berlin),,52.4340710,13.5444880,,,0,
9193510,,Abtstr. (Berlin),,52.4355130,13.5435380,,,0,
9193515,,Büchnerweg (Berlin),,52.4343420,13.5526140,,,0,
9194001,,Am Studio/Köpenicker Str. (Berlin),,52.4269260,13.5458550,,,0,
9194003,,Stubenrauchstr./Springbornstr. (Berlin),,52.4352930,13.5005770,,,0,
9194004,,Segelfliegerdamm/Waldstr. (Berlin),,52.4450160,13.5113060,,,0,
9194006,,S Schöneweide/Sterndamm (Berlin),,52.4539210,13.5099930,,,0,
9194007,,Sterndamm/Königsheideweg (Berlin),,52.4466570,13.5066560,,,0,
9194008,,Lindhorstweg (Berlin),,52.4415550,13.5007600,,,0,
9194009,,Hederichweg (Berlin),,52.4388550,13.4932420,,,0,
9194010,,Groß-Berliner Damm Mitte (Berlin),,52.4406960,13.5229530,,,0,
9194011,,Nieberstr. (Berlin),,52.4487720,13.5120230,,,0,
9194012,,Haeckelstr. (Berlin),,52.4407170,13.5059090,,,0,
9194014,,Wilhelm-Ostwald-Str. (Berlin),,52.4288630,13.5434230,,,0,
9194015,,Rudower Chaussee/Wegedornstr. (Berlin),,52.4288110,13.5267340,,,0,
9194016,,Karl-Ziegler-Str. (Berlin),,52.4327450,13.5261640,,,0,
9194500,,Hans-Schmidt-Str. (Berlin),,52.4337090,13.5329760,,,0,
9194501,,Magnusstr. (Berlin),,52.4297630,13.5302370,,,0,
9194502,,Akeleiweg (Berlin),,52.4294120,13.5128160,,,0,
9194503,,Johannes-Sasse-Ring (Berlin),,52.4318960,13.5061960,,,0,
9194504,,Walther-Nernst-Str. (Berlin),,52.4322690,13.5352200,,,0,
9194506,,Johannisthal Kirche (Berlin),,52.4443980,13.5040630,,,0,
9194507,,Springbornstr. (Berlin),,52.4417110,13.4962510,,,0,
9194508,,Ginkgoweg (Berlin),,52.4372590,13.4972470,,,0,
9194509,,Haushoferstr. (Berlin),,52.4474980,13.5005510,,,0,
9194510,,Ostweg (Berlin),,52.4489430,13.4957750,,,0,
9194511,,Westweg (Berlin),,52.4511320,13.4889350,,,0,
9194512,,Mahonienweg (Berlin),,52.4525860,13.4812470,,,0,
9194513,,Baumschulenstr./Königsheideweg (Berlin),,52.4561010,13.4754360,,,0,
9194514,,Gerhard-Sedlmayr-Str. (Berlin),,52.4437160,13.5187480,,,0,
9194516,,Engelhardstr./Pilotenstr. (Berlin),,52.4469140,13.5111360,,,0,
9194517,,Landfliegerstr. (Berlin),,52.4463650,13.5147500,,,0,
9194518,,Südostallee (Berlin),,52.4538420,13.5063120,,,0,
9194519,,Jugendzentrum (Berlin),,52.4565190,13.5007540,,,0,
9194520,,Herweghstr. (Berlin),,52.4441270,13.5055840,,,0,
9194521,,Mühlbergstr. (Berlin),,52.4416570,13.5033670,,,0,
9194522,,Pietschkerstr. (Berlin),,52.4506540,13.5082190,,,0,
9194523,,Sterndamm/Stubenrauchstr. (Berlin),,52.4375240,13.5032700,,,0,
9194524,,James-Franck-Str. (Berlin),,52.4284180,13.5229860,,,0,
9194525,,Albert-Einstein-Str. (Berlin),,52.4311260,13.5394440,,,0,
9194526,,Sterndamm/Schule (Berlin),,52.4396030,13.5008850,,,0,
9194527,,Trützschlerstr. (Berlin),,52.4456980,13.5056820,,,0,
9194534,,Ligusterweg (Berlin),,52.4453470,13.4816070,,,0,
9194535,,Johannisthaler Chaussee/Mahonienweg (Berlin),,52.4477140,13.4842160,,,0,
9194537,,Hermann-Dorner-Allee (Berlin),,52.4373890,13.5277660,,,0,
9194551,,Späthstr./Ligusterweg (Berlin),,52.4519650,13.4690450,,,0,
9194712,,Haeckelstr (Berlin),,52.4402230,13.5051270,,,0,
9194713,,Haeckelstraße (Berlin),,52.4412530,13.5061480,,,0,
9195003,,Bohnsdorfer Weg (Berlin),,52.4171740,13.5390460,,,0,
9195004,,Köpenicker Str./Schule (Berlin),,52.4189520,13.5377700,,,0,
9195006,,Altglienicke Kirche (Berlin),,52.4216210,13.5391860,,,0,
9195007,,Wendenstr. (Berlin),,52.4159850,13.5495140,,,0,
9195008,,Preußenstr. (Berlin),,52.4175980,13.5533630,,,0,
9195009,,Alemannenstr. (Berlin),,52.4148100,13.5520750,,,0,
9195010,,Kirschweg (Berlin),,52.4002010,13.5338560,,,0,
9195011,,Ortolfstr./Siriusstr. (Berlin),,52.4021710,13.5274590,,,0,
9195012,,Am Kiesberg (Berlin),,52.4229250,13.5266330,,,0,
9195013,,Wegedornstr./Semmelweisstr. (Berlin),,52.4245540,13.5271750,,,0,
9195501,,Siriusstr. (Berlin),,52.4018320,13.5217020,,,0,
9195502,,Venusstr. (Berlin),,52.4066970,13.5249560,,,0,
9195503,,Dankmarsteig (Berlin),,52.4124640,13.5287110,,,0,
9195504,,Wegedornstr. (Berlin),,52.4155650,13.5307000,,,0,
9195506,,Anne-Frank-Str. (Berlin),,52.4091540,13.5344170,,,0,
9195507,,Wolfmarsteig (Berlin),,52.4125330,13.5365040,,,0,
9195508,,Altglienicker Brücke (Berlin),,52.4244110,13.5436650,,,0,
9195510,,S Altglienicke (Berlin),,52.4077910,13.5596020,,,0,
9195511,,Schirnerstr. (Berlin),,52.4116810,13.5563010,,,0,
9195512,,Werderlake (Berlin),,52.4233430,13.5234870,,,0,
9195513,,Braunellensteig (Berlin),,52.4187540,13.5266800,,,0,
9195514,,Germanenstr./Normannenstr. (Berlin),,52.4177790,13.5415660,,,0,
9195515,,Gartenstadtweg (Berlin),,52.4122700,13.5667860,,,0,
9195516,,Drössestr. (Berlin),,52.4155320,13.5593610,,,0,
9195517,,Keltensteig (Berlin),,52.4187650,13.5465980,,,0,
9195518,,Normannenstr. (Berlin),,52.4198000,13.5403140,,,0,
9195520,,Alter Schönefelder Weg (Berlin),,52.4207890,13.5374520,,,0,
9195521,,Rebenweg (Berlin),,52.3998940,13.5380770,,,0,
9195522,,Ewaldstr. (Berlin),,52.4059590,13.5513080,,,0,
9195523,,Müngersdorfer Str. (Berlin),,52.4067960,13.5470760,,,0,
9195524,,Ortolfstr./Venusstr. (Berlin),,52.4052050,13.5311940,,,0,
9195719,,Korkedamm (Berlin),,52.4232290,13.5323040,,,0,
9195720,,Pfarrwöhrde (Berlin),,52.4220780,13.5309410,,,0,
9196001,,S Grünbergallee (Berlin),,52.3995390,13.5432220,,,0,
9196002,,Waldstr./Stadtgrenze (Berlin),,52.3899430,13.5710330,,,0,
9196003,,Waltersdorfer Str. (Berlin),,52.4051960,13.5749850,,,0,
9196501,,Lindenstr./Waltersdorfer Str. (Berlin),,52.3922280,13.5722310,,,0,
9196502,,Waltersdorfer Str./Parchwitzer Str. (Berlin),,52.3943780,13.5733800,,,0,
9196503,,Reihersteg (Berlin),,52.3939920,13.5780680,,,0,
9196504,,Eichbuschplatz (Berlin),,52.3933360,13.5827750,,,0,
9196505,,Schulzendorfer Str./Parchwitzer Str. (Berlin),,52.3944120,13.5856340,,,0,
9196506,,Merkurstr. (Berlin),,52.3970910,13.5828800,,,0,
9196507,,Neptunstr. (Berlin),,52.3993720,13.5803900,,,0,
9196508,,Joachimstr. (Berlin),,52.4030700,13.5767170,,,0,
9196509,,Bohnsdorf Kirche (Berlin),,52.3994010,13.5551480,,,0,
9196510,,Sausenberger Str. (Berlin),,52.4015230,13.5632900,,,0,
9196511,,Zur Gartenstadt (Berlin),,52.4031430,13.5685340,,,0,
9196512,,Am Seegraben (Berlin),,52.3990720,13.5466590,,,0,
9196513,,Krankenhaus Hedwigshöhe (Berlin),,52.4059480,13.5684430,,,0,
9196514,,Johannes-Tobei-Str. (Berlin),,52.4050750,13.5597420,,,0,
9260607,,Intercamping (Berlin),,52.3706050,13.6829860,,,0,
